,Lat,Long,Municipio,Estado,AreaKm2,Ano,Desmatado,Incremento,Floresta,Nuvem,NaoObservado,NaoFloresta,Hidrografia,PercDesmatado
0,-3.25303,-45.97435,Zé Doca,MA,2438,2008,1953.9,3.6,114.9,368.3,0.9,0.0,0.0,0.8014356029532403
1,-6.84864,-49.25551,Xinguara,PA,3793,2008,3363.2,4.8,412.2,0.0,0.0,0.0,17.6,0.8866860005272871
2,-10.61178,-68.46285,Xapuri,AC,5511,2008,1257.3,23.8,4253.2,0.0,0.5,0.0,0.0,0.2281437125748503
3,-6.598660000000001,-48.48198,Xambioá,TO,1191,2008,977.5,7.8,172.3,0.0,0.1,11.0,30.1,0.8207388748950462
4,-6.88444,-47.99094,Wanderlândia,TO,1382,2008,314.6,2.4,146.6,0.0,0.0,920.8,0.0,0.22764109985528222
5,-4.1550199999999995,-45.29588,Vitorino Freire,MA,1209,2008,1166.3,0.0,0.0,0.0,0.0,43.3,0.0,0.9646815550041357
6,-3.19117,-51.871140000000004,Vitória do Xingu,PA,3136,2008,1831.6,10.7,713.4,438.7,2.8,0.1,149.4,0.5840561224489795
7,-3.54938,-44.93269,Vitória do Mearim,MA,736,2008,236.4,2.9,24.2,0.3,0.3,464.9,9.9,0.32119565217391305
8,-1.0161200000000001,-52.05024,Vitória do Jari,AP,2481,2008,194.4,1.4,1018.9,757.9,0.4,379.8,129.6,0.07835550181378477
9,-1.09331,-46.26696,Viseu,PA,4971,2008,3400.7,16.0,1082.7,353.0,1.9,45.4,87.3,0.684107825387246
10,-12.123510000000001,-60.112109999999994,Vilhena,RO,11584,2008,1715.3,60.7,8177.5,0.0,3.9,1685.8,1.5,0.14807493093922652
11,-10.01731,-51.43727,Vila Rica,MT,7443,2008,4581.7,78.5,2628.2,0.0,36.4,186.8,9.9,0.6155716780867929
12,-5.03923,-48.09734,Vila Nova dos Martírios,MA,1196,2008,962.7,2.2,90.9,0.0,1.4,131.8,9.2,0.8049331103678931
13,-15.13556,-60.01729,Vila Bela da Santíssima Trindade,MT,13521,2008,4516.3,36.5,2205.5,100.9,34.9,6590.5,72.9,0.334021152281636
14,-0.9177700000000001,-48.118109999999994,Vigia,PA,536,2008,216.0,1.5,141.0,0.0,1.2,16.4,161.4,0.40298507462686567
15,-3.1301200000000002,-45.18793,Viana,MA,1176,2008,502.0,6.5,96.2,0.2,0.2,382.3,195.1,0.4268707482993197
16,-12.48409,-55.323840000000004,Vera,MT,2952,2008,1921.3,6.1,1011.3,0.0,1.5,17.8,0.1,0.6508468834688347
17,-15.55785,-56.34461999999999,Várzea Grande,MT,939,2008,0.0,0.0,0.0,0.0,1.4,937.7,0.0,0.0
18,-10.36243,-62.072269999999996,Vale do Paraíso,RO,974,2008,867.6,0.8,102.2,0.0,0.0,3.5,0.7,0.8907597535934292
19,-9.69033,-61.7712,Vale do Anari,RO,3166,2008,1180.8,12.6,1954.9,0.0,0.0,11.3,19.0,0.372962728995578
20,-15.02325,-58.956559999999996,Vale de São Domingos,MT,1913,2008,601.8,0.9,499.9,0.0,0.2,811.1,0.0,0.31458442237323575
21,-11.11448,-62.45596,Urupá,RO,841,2008,685.8,2.0,57.5,0.0,0.0,97.7,0.0,0.8154577883472056
22,-2.8349,-57.83095,Urucurituba,AM,2915,2008,93.6,0.6,129.7,1.4,0.3,1689.6,1000.4,0.032109777015437393
23,-1.24938,-58.78714,Urucará,AM,28012,2008,332.2,2.1,25340.2,1268.0,2.2,423.0,646.4,0.011859203198629159
24,-3.5763300000000005,-53.741009999999996,Uruará,PA,10794,2008,2876.4,91.5,6236.7,1671.0,9.7,0.0,0.2,0.26648137854363535
25,-11.535960000000001,-54.3507,União do Sul,MT,4583,2008,1016.8,38.5,3541.4,0.0,2.1,22.7,0.0,0.22186340824787257
26,-3.8018699999999996,-47.54701,Ulianópolis,PA,5122,2008,3351.5,137.4,1759.7,7.9,2.9,0.0,0.0,0.6543342444357673
27,4.71636,-60.34048000000001,Uiramutã,RR,8117,2008,32.2,0.5,997.9,1137.2,57.5,5884.1,8.1,0.003966982875446594
28,-3.20648,-65.43058,Uarini,AM,10448,2008,239.0,6.8,9494.3,180.3,2.2,100.4,431.8,0.022875191424196018
29,-2.11952,-45.43842,Turilândia,MA,1529,2008,1173.1,13.5,120.0,39.0,0.8,135.6,60.5,0.7672334859385218
30,-1.4712399999999999,-45.40039,Turiaçu,MA,2603,2008,1908.9,7.8,414.0,164.4,1.0,48.0,66.7,0.7333461390703035
31,-8.355269999999999,-48.19828,Tupiratins,TO,900,2008,2.2,0.0,6.8,0.0,0.0,883.1,7.9,0.002444444444444445
32,-8.940539999999999,-48.28255,Tupirama,TO,715,2008,0.0,0.0,0.0,0.0,0.0,709.8,5.7,0.0
33,-5.60091,-44.826879999999996,Tuntum,MA,3619,2008,1179.5,24.9,461.8,0.0,0.2,1933.7,43.8,0.32591876208897486
34,-3.7701300000000004,-45.57549,Tufilândia,MA,274,2008,249.0,0.0,0.0,0.0,0.0,25.0,0.0,0.9087591240875912
35,-3.79728,-49.8067,Tucuruí,PA,2095,2008,714.4,27.7,893.8,2.9,1.1,4.7,478.1,0.34100238663484483
36,-6.813339999999999,-51.41284,Tucumã,PA,2513,2008,2270.5,9.9,234.5,0.0,0.4,0.0,7.6,0.9035017906884202
37,-4.53616,-44.669990000000006,Trizidela do Vale,MA,225,2008,152.8,0.0,0.0,0.0,72.5,0.0,0.0,0.6791111111111111
38,-5.1062,-55.93385,Trairão,PA,11997,2008,1017.6,43.3,10876.1,0.0,0.2,1.1,102.0,0.08482120530132534
39,-0.92904,-46.93052,Tracuateua,PA,858,2008,463.5,2.2,138.7,46.1,0.1,188.8,20.8,0.5402097902097902
40,-16.29768,-52.9183,Torixoréu,MT,2397,2008,0.0,0.0,0.0,0.0,2.2,2394.2,1.1,0.0
41,-2.57583,-67.47268000000001,Tonantins,AM,6619,2008,81.0,0.3,5030.4,1122.4,2.1,67.4,315.7,0.012237498111497205
42,-2.6602799999999998,-48.258179999999996,Tomé-Açu,PA,5169,2008,2888.1,36.1,2278.4,0.0,2.0,0.1,0.4,0.5587347649448636
43,-6.23192,-47.554190000000006,Tocantinópolis,TO,1085,2008,300.5,1.1,135.6,0.0,0.0,624.0,24.9,0.2769585253456221
44,-9.61778,-48.15994,Tocantínia,TO,2619,2008,0.0,0.0,0.0,0.0,0.3,2600.5,18.8,0.0
45,-10.0886,-62.27984,Theobroma,RO,2217,2008,1734.3,7.3,482.3,0.0,0.0,0.0,0.4,0.7822733423545332
46,-15.906270000000001,-53.44494,Tesouro,MT,3944,2008,0.0,0.0,0.0,0.0,5.1,3938.9,1.1,0.0
47,-1.90481,-56.474180000000004,Terra Santa,PA,1900,2008,332.6,5.8,738.9,49.2,1.8,388.1,389.4,0.17505263157894738
48,-10.493269999999999,-54.989180000000005,Terra Nova do Norte,MT,2551,2008,2103.2,20.9,443.2,0.0,0.0,4.6,0.0,0.8244609956879654
49,-0.9934700000000001,-47.8485,Terra Alta,PA,209,2008,170.1,1.4,38.1,0.0,0.8,0.0,0.0,0.8138755980861244
50,-10.9319,-62.2591,Teixeirópolis,RO,464,2008,441.3,0.5,22.7,0.0,0.0,0.0,0.0,0.9510775862068965
51,-4.41301,-65.57764,Tefé,AM,24186,2008,620.7,10.1,22033.7,634.2,3.8,168.9,724.7,0.025663607045398166
52,-8.308010000000001,-45.887,Tasso Fragoso,MA,4426,2008,0.0,0.0,27.1,0.0,0.0,4398.9,0.0,0.0
53,1.31335,-50.929429999999996,Tartarugalzinho,AP,6718,2008,292.6,13.9,2398.9,596.8,14.3,3226.1,189.3,0.0435546293539744
54,-8.26015,-71.43408000000001,Tarauacá,AC,21156,2008,1394.3,38.2,19330.7,414.0,2.2,1.2,13.6,0.06590565324257894
55,-12.58197,-56.49045,Tapurah,MT,4491,2008,1932.3,10.5,1868.0,0.0,0.0,680.6,10.1,0.4302605210420842
56,-5.93398,-65.97188,Tapauá,AM,90962,2008,304.8,3.5,84286.6,2706.2,1.9,2161.1,1501.4,0.0033508498054132495
57,-14.4327,-58.38021,Tangará da Serra,MT,11333,2008,2171.7,4.1,647.6,0.0,0.0,8512.8,0.9,0.19162622430071471
58,-12.6709,-49.06021,Talismã,TO,2162,2008,0.0,0.0,0.0,0.0,2161.2,2158.4,0.0,0.0
59,-12.15468,-46.97995,Taipas do Tocantins,TO,1123,2008,0.0,0.0,0.0,0.0,1123.1,1123.5,0.0,0.0
60,-2.9033599999999997,-48.78385,Tailândia,PA,4451,2008,2099.3,73.1,2348.1,1.0,2.6,0.0,0.0,0.47164682093911486
61,-12.34835,-46.59775,Taguatinga,TO,2458,2008,0.0,0.0,0.0,0.0,2457.6,2452.3,0.0,0.0
62,-4.02878,-69.69785999999999,Tabatinga,AM,3343,2008,154.5,1.1,834.5,2264.1,36.6,1.3,52.0,0.04621597367633862
63,-11.067169999999999,-56.77741999999999,Tabaporã,MT,8231,2008,2487.5,66.8,3496.5,0.0,0.7,2240.1,6.2,0.3022111529583283
64,-6.5022199999999994,-44.32649,Sucupira do Norte,MA,1087,2008,0.0,0.0,0.0,0.0,462.2,1087.8,0.0,0.0
65,-12.08831,-48.85414,Sucupira,TO,1030,2008,0.0,0.0,0.0,0.0,1031.4,1030.8,0.0,0.0
66,-0.53599,-48.677209999999995,Soure,PA,3528,2008,33.7,0.0,184.1,75.5,0.9,2502.9,730.9,0.009552154195011339
67,-12.69331,-55.777409999999996,Sorriso,MT,9349,2008,3969.3,2.9,1259.9,0.0,0.7,4119.1,0.0,0.4245694726708739
68,-5.64773,-47.65314,Sítio Novo do Tocantins,TO,325,2008,294.3,0.7,30.7,0.0,0.0,0.0,0.0,0.9055384615384616
69,-6.274369999999999,-46.55403,Sítio Novo,MA,3141,2008,57.8,0.1,0.0,0.0,867.1,3063.1,0.0,0.01840178287169691
70,-11.74201,-55.40265,Sinop,MT,3935,2008,2437.6,47.6,1342.7,0.0,0.0,136.3,18.4,0.6194663278271918
71,-2.8509900000000004,-58.496140000000004,Silves,AM,3758,2008,426.4,2.8,2192.5,410.5,1.2,128.7,598.7,0.11346460883448642
72,-11.11331,-48.22351,Silvanópolis,TO,1268,2008,0.0,0.0,0.0,0.0,1263.2,1268.6,0.0,0.0
73,-1.88674,-45.04397,Serrano do Maranhão,MA,1221,2008,1101.0,0.6,63.3,40.4,0.3,2.3,13.7,0.9017199017199017
74,-12.06992,-51.31397,Serra Nova Dourada,MT,1491,2008,281.8,9.6,246.5,0.0,0.0,962.7,0.0,0.18900067069081156
75,1.63998,-52.27148,Serra do Navio,AP,7762,2008,70.6,0.3,4802.0,2878.7,1.6,0.0,9.1,0.009095593919093016
76,-11.88579,-63.10785,Seringueiras,RO,3821,2008,1224.6,43.3,1901.4,0.0,0.0,695.0,0.0,0.32049201779638836
77,-5.31274,-47.07804,Senador La Rocque,MA,1247,2008,1141.6,13.2,105.4,0.0,0.0,0.0,0.0,0.915477145148356
78,-3.5582,-51.73873,Senador José Porfírio,PA,14389,2008,651.3,14.8,10732.2,2529.4,3.9,84.9,387.3,0.04526374313711863
79,-9.97788,-67.32124,Senador Guiomard,AC,2384,2008,1669.1,5.0,714.9,0.0,0.0,0.0,0.0,0.7001258389261744
80,-9.771469999999999,-69.33204,Sena Madureira,AC,24599,2008,1583.7,36.4,22990.6,0.0,21.7,2.4,0.6,0.06438066588072686
81,-3.9388900000000002,-45.26408,Satubinha,MA,447,2008,356.2,0.0,0.0,0.0,0.0,86.7,4.4,0.7968680089485458
82,-6.83358,-49.56823,Sapucaia,PA,1300,2008,1157.7,0.4,142.3,0.0,0.0,0.0,0.0,0.8905384615384616
83,-12.96091,-58.60201,Sapezal,MT,13636,2008,184.3,6.5,2704.5,145.1,5.7,10595.9,0.5,0.013515693751833383
84,-2.87304,-44.93268,São Vicente Ferrer,MA,393,2008,296.1,0.0,0.0,0.0,0.0,97.8,0.0,0.7534351145038168
85,-11.77169,-48.22797,São Valério da Natividade,TO,2532,2008,0.0,0.0,0.0,0.0,2531.8,2532.2,0.0,0.0
86,-1.89625,-58.81001,São Sebastião do Uatumã,AM,10776,2008,195.6,5.5,7983.6,1903.1,2.2,65.7,625.8,0.018151447661469932
87,-5.2432099999999995,-48.32049,São Sebastião do Tocantins,TO,287,2008,135.6,0.0,0.0,0.0,0.0,132.9,18.6,0.4724738675958188
88,-1.4310200000000002,-49.6042,São Sebastião da Boa Vista,PA,1636,2008,120.9,0.0,1145.9,78.2,0.0,175.1,115.9,0.07389975550122249
89,-12.54073,-48.35452,São Salvador do Tocantins,TO,1429,2008,0.0,0.0,0.0,0.0,1430.9,1429.0,0.0,0.0
90,-5.02229,-45.0238,São Roberto,MA,229,2008,229.7,0.0,0.0,0.0,0.0,0.0,0.0,1.003056768558952
91,-5.10345,-45.06812,São Raimundo do Doca Bezerra,MA,284,2008,279.9,0.0,3.8,0.0,0.3,0.0,0.0,0.9855633802816901
92,-7.052010000000001,-45.66837,São Raimundo das Mangabeiras,MA,3555,2008,0.0,0.0,0.0,0.0,3556.3,3555.6,0.0,0.0
93,-6.850280000000001,-46.80829,São Pedro dos Crentes,MA,987,2008,0.0,0.0,0.0,0.0,452.4,988.0,0.0,0.0
94,-15.96819,-54.74813,São Pedro da Cipa,MT,343,2008,305.7,0.0,6.3,0.0,0.0,31.0,0.0,0.8912536443148688
95,-5.1386400000000005,-48.3445,São Pedro da Água Branca,MA,725,2008,453.1,0.3,40.8,0.0,0.9,208.0,22.2,0.6249655172413794
96,-4.73714,-69.52391999999999,São Paulo de Olivença,AM,20467,2008,174.6,0.3,13082.3,6532.8,3.2,86.3,587.8,0.008530805687203791
97,-5.54593,-47.56455,São Miguel do Tocantins,TO,400,2008,332.0,1.7,51.0,0.0,0.0,4.2,12.8,0.83
98,-11.6207,-62.70568000000001,São Miguel do Guaporé,RO,8102,2008,2124.0,48.7,4179.7,0.0,0.1,1798.2,0.0,0.26215749197728955
99,-1.55275,-47.62771,São Miguel do Guamá,PA,1117,2008,880.9,8.1,185.7,0.0,3.0,15.2,32.2,0.7886302596239928
100,-3.98602,-44.504220000000004,São Mateus do Maranhão,MA,793,2008,456.5,0.0,0.0,0.0,223.1,106.9,9.0,0.5756620428751577
101,0.84851,-60.14343,São Luiz,RR,1537,2008,540.1,12.8,988.0,6.2,0.6,0.0,2.1,0.35139882888744306
102,-4.3794699999999995,-44.64014,São Luís Gonzaga do Maranhão,MA,981,2008,643.5,0.0,0.4,0.0,335.4,1.7,0.0,0.6559633027522935
103,-2.62711,-44.30617,São Luís,MA,839,2008,367.9,15.8,178.7,0.2,1.1,0.0,291.1,0.43849821215733015
104,-15.532160000000001,-58.336969999999994,São José dos Quatro Marcos,MT,1284,2008,1181.4,1.7,66.5,0.0,0.0,36.1,0.0,0.9200934579439253
105,-5.01499,-44.55154,São José dos Basílios,MA,366,2008,269.2,2.9,2.8,0.0,81.3,0.0,12.7,0.7355191256830601
106,-10.68304,-52.63992,São José do Xingu,MT,7465,2008,4280.8,94.2,2816.1,0.0,4.9,306.2,57.0,0.5734494306764903
107,-13.436010000000001,-56.79362,São José do Rio Claro,MT,4563,2008,1731.0,18.3,1726.3,0.0,0.0,1103.6,2.1,0.3793556870479947
108,-16.45731,-54.27559,São José do Povo,MT,443,2008,27.4,0.0,0.0,0.0,0.0,416.1,0.0,0.0618510158013544
109,-2.5952,-44.09279,São José de Ribamar,MA,390,2008,99.4,5.3,83.9,0.1,34.4,0.0,172.2,0.2548717948717949
110,-6.4398800000000005,-46.90735,São João do Paraíso,MA,2070,2008,252.6,0.7,21.9,0.0,0.7,1794.8,0.0,0.12202898550724638
111,-3.5971,-46.537440000000004,São João do Carú,MA,620,2008,394.0,0.2,54.0,171.8,0.2,0.0,0.0,0.635483870967742
112,-5.4417,-48.67711,São João do Araguaia,PA,1288,2008,885.9,34.8,212.3,0.0,0.0,73.7,116.1,0.6878105590062111
113,-0.77509,-47.26758,São João de Pirabas,PA,703,2008,196.0,4.8,279.7,132.0,1.0,12.9,81.4,0.27880512091038406
114,-0.8685,-47.96322,São João da Ponta,PA,197,2008,103.4,3.9,80.2,0.0,0.4,1.7,11.3,0.5248730964467005
115,0.77051,-59.92018,São João da Baliza,RR,4305,2008,495.5,14.9,3788.0,15.0,0.7,0.4,5.4,0.11509872241579559
116,-3.01337,-44.77539,São João Batista,MA,700,2008,148.6,0.0,57.3,0.0,0.1,358.8,135.2,0.21228571428571427
117,-6.16889,-48.75597,São Geraldo do Araguaia,PA,3181,2008,2484.8,7.9,352.9,0.0,0.0,314.1,29.2,0.7811380069160642
118,0.35952,-68.17017,São Gabriel da Cachoeira,AM,112476,2008,1180.6,9.6,81066.1,27862.6,394.7,489.7,1482.3,0.010496461467335252
119,-1.20761,-47.74858,São Francisco do Pará,PA,480,2008,415.5,2.5,61.9,0.0,1.2,1.3,0.1,0.865625
120,-12.3802,-62.946490000000004,São Francisco do Guaporé,RO,11095,2008,2424.3,46.4,5503.0,0.0,0.0,3144.7,23.0,0.21850383055430375
121,-5.1698900000000005,-47.32265,São Francisco do Brejão,MA,751,2008,712.5,2.4,38.5,0.0,0.0,0.0,0.0,0.9487350199733688
122,-7.461139999999999,-52.46225,São Félix do Xingu,PA,84253,2008,16206.2,765.1,63179.6,133.7,6.5,3788.0,939.0,0.19235160765788756
123,-10.043610000000001,-46.75224,São Félix do Tocantins,TO,1923,2008,0.0,0.0,0.0,0.0,1923.1,1923.4,0.0,0.0
124,-11.479560000000001,-52.50108,São Félix do Araguaia,MT,16851,2008,4387.1,210.1,6221.6,0.0,0.7,6180.1,61.5,0.26034656696931935
125,-7.10735,-44.885709999999996,São Félix de Balsas,MA,2057,2008,0.0,0.0,12.5,0.0,0.0,2044.5,0.0,0.0
126,-11.91634,-61.45463,São Felipe D'Oeste,RO,547,2008,485.1,0.4,61.9,0.0,0.0,0.0,0.0,0.886837294332724
127,-5.66656,-44.31635,São Domingos do Maranhão,MA,1168,2008,760.4,33.4,315.3,0.0,0.0,92.3,0.0,0.6510273972602739
128,-1.9272900000000002,-47.75973,São Domingos do Capim,PA,1686,2008,1328.5,12.5,303.7,0.0,2.7,15.2,35.9,0.7879596678529063
129,-6.84762,-44.59859,São Domingos do Azeitão,MA,974,2008,0.0,0.0,0.0,0.0,1071.8,974.2,0.0,0.0
130,-5.68166,-48.73065,São Domingos do Araguaia,PA,1397,2008,1266.6,9.8,130.4,0.0,0.0,0.0,0.0,0.9066571224051538
131,-0.82301,-48.03573,São Caetano de Odivelas,PA,752,2008,230.6,3.6,197.4,0.7,1.0,8.8,313.5,0.30664893617021277
132,-5.94912,-47.79323,São Bento do Tocantins,TO,1112,2008,348.4,0.7,77.5,0.0,1.4,684.7,0.0,0.3133093525179856
133,-2.78496,-44.93574,São Bento,MA,465,2008,362.8,0.0,1.9,0.0,0.0,99.8,0.5,0.7802150537634409
134,-4.8128,-44.4809,Santo Antônio dos Lopes,MA,781,2008,278.6,0.0,1.5,0.0,500.9,0.0,0.0,0.3567221510883483
135,-1.09607,-48.14127,Santo Antônio do Tauá,PA,540,2008,323.6,2.0,111.7,0.0,1.0,6.8,96.9,0.5992592592592593
136,-16.48613,-55.26485,Santo Antônio do Leverger,MT,12262,2008,1033.6,1.3,1106.9,0.0,0.3,10099.5,21.7,0.08429293753058228
137,-14.820129999999999,-53.691959999999995,Santo Antônio do Leste,MT,3597,2008,2.0,0.0,64.8,0.0,0.0,3530.2,0.0,0.0005560189046427579
138,-3.0807900000000004,-69.06723000000001,Santo Antônio do Içá,AM,12737,2008,132.2,1.1,11272.5,704.6,86.0,90.4,451.3,0.010379210175080473
139,-14.44224,-57.21069,Santo Afonso,MT,1172,2008,944.3,7.0,223.3,0.0,0.0,4.4,0.0,0.805716723549488
140,-0.90151,-47.345859999999995,Santarém Novo,PA,230,2008,147.5,3.1,71.3,0.0,0.5,1.9,8.8,0.6413043478260869
141,-2.81346,-55.58935,Santarém,PA,22890,2008,4505.0,56.8,12781.5,1040.0,12.2,663.5,3887.8,0.19681083442551334
142,-9.276660000000001,-50.54546,Santana do Araguaia,PA,11609,2008,6999.9,191.2,3735.5,0.0,0.3,808.4,64.9,0.6029718321991558
143,0.17769000000000001,-51.42352,Santana,AP,1578,2008,74.2,4.5,399.5,119.6,0.4,940.0,44.3,0.04702154626108999
144,-6.4848300000000005,-47.76416,Santa Terezinha do Tocantins,TO,271,2008,73.3,0.0,24.2,0.0,0.5,173.0,0.0,0.27047970479704797
145,-10.2875,-50.98703,Santa Terezinha,MT,6459,2008,2534.8,42.6,2288.8,0.0,344.5,1243.7,47.2,0.39244465087474845
146,-10.29171,-47.74599,Santa Tereza do Tocantins,TO,543,2008,0.0,0.0,0.0,0.0,0.0,543.7,0.0,0.0
147,-11.41267,-48.13864,Santa Rosa do Tocantins,TO,1804,2008,0.0,0.0,0.0,0.0,1804.4,1804.1,0.0,0.0
148,-9.51622,-70.29089,Santa Rosa do Purus,AC,6350,2008,70.2,2.2,6206.8,0.0,38.0,0.1,34.9,0.01105511811023622
149,-13.78307,-55.28771999999999,Santa Rita do Trivelato,MT,4756,2008,666.0,1.4,682.9,0.0,0.0,3407.1,0.0,0.1400336417157275
150,-10.96311,-49.32012,Santa Rita do Tocantins,TO,3285,2008,20.3,0.2,0.0,0.0,1106.5,3247.0,0.2,0.006179604261796043
151,-3.15407,-44.33057,Santa Rita,MA,718,2008,234.2,21.7,286.8,5.6,1.0,168.6,21.8,0.32618384401114203
152,-8.800989999999999,-47.89796,Santa Maria do Tocantins,TO,1419,2008,0.0,0.0,0.0,0.0,0.0,1410.6,9.3,0.0
153,-1.36579,-47.53045,Santa Maria do Pará,PA,460,2008,413.5,1.0,45.0,0.0,1.5,0.0,0.0,0.8989130434782608
154,-8.64175,-50.39224,Santa Maria das Barreiras,PA,10351,2008,5720.6,106.6,2072.5,0.0,0.0,2508.9,49.0,0.5526615785914405
155,-2.52815,-45.77625,Santa Luzia do Paruá,MA,908,2008,863.4,0.3,0.0,141.2,0.0,30.5,0.0,0.9508810572687224
156,-1.72515,-46.89921,Santa Luzia do Pará,PA,1367,2008,1239.2,5.6,115.7,11.9,0.2,0.0,0.0,0.9065106071689832
157,-12.1423,-61.729459999999996,Santa Luzia D'Oeste,RO,1207,2008,973.0,3.7,234.0,0.0,0.0,0.0,0.0,0.8061309030654515
158,-4.29175,-45.936820000000004,Santa Luzia,MA,6245,2008,5677.3,50.3,566.7,0.7,0.3,0.0,0.0,0.9090952762209769
159,-0.25129,-64.98731,Santa Isabel do Rio Negro,AM,64130,2008,207.2,1.3,58882.6,3381.4,79.7,950.8,628.3,0.0032309371588959924
160,-1.36752,-48.12871,Santa Isabel do Pará,PA,720,2008,532.2,1.5,161.2,0.0,1.7,4.1,20.8,0.7391666666666667
161,-3.85236,-45.42994,Santa Inês,MA,778,2008,766.3,0.0,0.0,0.0,0.0,8.6,3.5,0.9849614395886889
162,-2.4694599999999998,-45.536809999999996,Santa Helena,MA,2335,2008,1405.8,9.2,154.1,37.2,0.7,629.3,107.9,0.6020556745182013
163,-5.49785,-44.60715,Santa Filomena do Maranhão,MA,408,2008,54.7,1.5,14.0,0.0,0.0,339.3,0.0,0.1340686274509804
164,-7.0407,-49.04623,Santa Fé do Araguaia,TO,1683,2008,1260.3,1.8,363.4,0.0,0.0,0.0,59.3,0.7488413547237076
165,-10.04129,-52.55143,Santa Cruz do Xingu,MT,5627,2008,1341.5,7.7,2598.5,0.0,0.0,1621.6,65.4,0.23840412297849653
166,-0.55415,-49.32373,Santa Cruz do Arari,PA,1078,2008,0.0,0.0,2.8,2.9,0.0,1044.1,28.2,0.0
167,-11.946639999999999,-54.842240000000004,Santa Carmem,MT,3836,2008,1437.0,24.3,2399.0,0.0,0.0,0.0,0.0,0.3746089676746611
168,-1.19187,-48.2373,Santa Bárbara do Pará,PA,279,2008,159.0,1.2,99.7,0.0,0.7,0.0,19.6,0.5698924731182796
169,-12.38825,-49.85725,Sandolândia,TO,3536,2008,4.1,0.0,74.0,0.0,2.2,3440.9,14.8,0.001159502262443439
170,-5.34123,-47.90444,Sampaio,TO,223,2008,75.1,0.1,11.6,0.0,0.3,123.4,12.6,0.33677130044843046
171,-7.3979800000000004,-45.56971,Sambaíba,MA,2509,2008,0.0,0.0,31.9,0.0,0.0,2477.1,0.0,0.0
172,-0.81267,-48.58165,Salvaterra,PA,1048,2008,104.0,0.3,179.2,31.6,0.2,433.3,299.7,0.09923664122137404
173,-15.002289999999999,-58.1721,Salto do Céu,MT,1776,2008,1341.9,1.3,382.3,0.0,0.0,51.7,0.1,0.7555743243243244
174,-0.70803,-47.351420000000005,Salinópolis,PA,219,2008,25.1,0.7,100.7,61.6,0.2,10.5,20.9,0.11461187214611873
175,-4.1998,-55.32309,Rurópolis,PA,7025,2008,1699.7,50.2,5235.8,41.5,0.2,0.0,47.8,0.24195017793594306
176,-14.8618,-56.251580000000004,Rosário Oeste,MT,7493,2008,65.4,0.3,23.6,0.0,0.0,7395.0,9.0,0.008728146269851862
177,-2.957,-44.2037,Rosário,MA,695,2008,85.2,12.2,502.9,12.0,0.5,0.0,94.4,0.12258992805755396
178,-0.21598,-61.060080000000006,Rorainópolis,RR,33847,2008,1048.7,26.6,23393.1,1182.5,9.0,7642.4,571.3,0.030983543593228354
179,-16.570970000000003,-54.71462,Rondonópolis,MT,4168,2008,826.2,0.5,270.5,0.0,0.0,3065.7,5.6,0.19822456813819578
180,-4.4814099999999994,-48.46332,Rondon do Pará,PA,8286,2008,5331.0,54.2,2955.0,0.0,0.0,0.0,0.0,0.6433743664011585
181,-10.314160000000001,-61.08724,Rondolândia,MT,12743,2008,1858.0,18.6,10807.0,0.0,1.4,52.2,24.4,0.14580554029663345
182,-11.740310000000001,-61.75168000000001,Rolim de Moura,RO,1471,2008,1319.9,3.5,151.1,0.0,0.0,0.0,0.0,0.8972807613868118
183,-7.85728,-73.21253,Rodrigues Alves,AC,3246,2008,464.8,6.1,2713.7,11.8,55.0,0.7,0.0,0.14319162045594577
184,-9.64454,-47.48905,Rio Sono,TO,6394,2008,0.0,0.0,0.0,0.0,1918.8,6392.1,0.0,0.0
185,-2.50853,-59.60122,Rio Preto da Eva,AM,5838,2008,559.6,7.1,5265.1,0.6,2.4,0.0,10.3,0.09585474477560808
186,-7.36998,-50.10481,Rio Maria,PA,4122,2008,3360.0,15.4,625.9,0.0,0.0,128.6,7.5,0.8151382823871907
187,-9.23883,-48.4489,Rio dos Bois,TO,848,2008,17.8,0.0,0.2,0.0,0.0,828.1,1.9,0.02099056603773585
188,-11.30829,-46.751290000000004,Rio da Conceição,TO,793,2008,0.0,0.0,0.0,0.0,777.4,785.9,0.0,0.0
189,-9.68593,-62.83526,Rio Crespo,RO,1741,2008,1052.3,7.8,665.4,0.0,0.0,23.3,0.0,0.6044227455485353
190,-9.99527,-68.15925,Rio Branco,AC,9113,2008,2482.3,29.3,6630.5,0.0,0.1,0.0,0.1,0.2723910896521453
191,-15.281410000000001,-58.151759999999996,Rio Branco,MT,529,2008,445.9,0.0,10.4,0.0,0.5,72.2,0.0,0.8429111531190926
192,-16.45789,-52.728880000000004,Ribeirãozinho,MT,623,2008,0.0,0.0,0.0,0.0,21.7,618.7,0.0,0.0
193,-12.88015,-51.58,Ribeirão Cascalheira,MT,11364,2008,1611.4,5.7,1797.5,0.0,0.2,7938.9,16.0,0.14179866244280184
194,-5.96305,-47.31957,Ribamar Fiquene,MA,755,2008,433.7,1.1,61.1,0.0,0.0,244.7,15.5,0.5744370860927153
195,-6.47515,-48.088809999999995,Riachinho,TO,520,2008,442.1,1.7,58.6,0.0,0.5,18.8,0.0,0.8501923076923077
196,-7.74682,-46.626709999999996,Riachão,MA,6422,2008,0.0,0.0,0.0,0.0,4444.1,6422.7,0.0,0.0
197,-14.933810000000001,-58.50079,Reserva do Cabaçal,MT,1342,2008,304.9,0.9,327.2,0.0,0.0,709.9,0.0,0.22719821162444112
198,-8.05636,-50.21305,Redenção,PA,3830,2008,2652.7,8.6,472.2,0.0,0.1,705.0,0.0,0.6926109660574412
199,-8.69697,-47.110929999999996,Recursolândia,TO,2230,2008,33.3,0.0,94.4,0.0,1.4,2100.9,0.0,0.014932735426008967
200,-2.41702,-44.04998,Raposa,MA,64,2008,14.5,0.2,38.9,2.1,0.1,0.7,7.7,0.2265625
201,-12.2343,-52.7084,Querência,MT,17854,2008,5017.5,72.1,10481.2,0.0,0.8,2273.5,81.0,0.2810294611851686
202,-0.74831,-47.02402,Quatipuru,PA,326,2008,79.4,2.1,121.1,41.6,0.3,24.9,58.7,0.24355828220858897
203,-10.42056,-48.86192,Pugmil,TO,403,2008,0.0,0.0,0.0,0.0,0.0,403.3,0.0,0.0
204,-15.12711,-54.21448,Primavera do Leste,MT,5473,2008,0.7,0.0,17.1,0.0,0.0,5455.2,0.0,0.00012790060295998537
205,-11.90772,-61.30165,Primavera de Rondônia,RO,610,2008,421.7,1.1,94.2,0.0,0.0,93.6,0.5,0.6913114754098361
206,-0.93652,-47.152770000000004,Primavera,PA,261,2008,176.7,0.8,66.4,0.2,0.4,9.3,8.0,0.6770114942528735
207,-2.5908700000000002,-45.34959,Presidente Sarney,MA,732,2008,561.4,8.2,65.0,20.6,0.2,82.1,2.7,0.7669398907103825
208,-11.19374,-61.84743,Presidente Médici,RO,1773,2008,1603.2,3.8,142.7,0.0,0.0,17.6,9.5,0.9042301184433165
209,-2.30799,-45.7641,Presidente Médici,MA,441,2008,440.1,0.0,0.0,131.7,0.0,0.0,0.0,0.9979591836734695
210,-8.46487,-48.4769,Presidente Kennedy,TO,774,2008,339.9,0.3,102.8,0.0,0.6,330.7,0.0,0.4391472868217054
211,-3.09801,-44.06306,Presidente Juscelino,MA,360,2008,55.0,17.1,265.0,1.5,2.7,33.3,2.5,0.1527777777777778
212,-0.65847,-60.17004,Presidente Figueiredo,AM,25568,2008,695.1,18.9,20483.1,957.7,9.2,1.1,3421.8,0.027186326658322903
213,-5.28901,-44.46201,Presidente Dutra,MA,805,2008,721.1,5.5,83.7,0.0,0.0,0.1,0.1,0.895776397515528
214,-1.9181400000000002,-53.4533,Prainha,PA,14785,2008,1524.0,71.1,8280.4,456.0,9.1,2964.4,1551.1,0.10307744335475144
215,-5.4885,-47.7858,Praia Norte,TO,291,2008,218.5,3.9,33.7,0.0,0.0,29.5,9.3,0.7508591065292096
216,1.61009,-50.736540000000005,Pracuúba,AP,4965,2008,71.5,5.2,2434.1,1211.5,2.8,1176.0,69.1,0.014400805639476334
217,-15.80816,-54.25666,Poxoréo,MT,6922,2008,1853.7,4.9,95.5,0.0,0.0,4972.8,0.0,0.2677983241837619
218,-8.45223,-72.76651,Porto Walter,AC,6661,2008,162.9,6.6,5579.8,913.4,1.9,3.0,0.0,0.024455787419306412
219,-8.98448,-63.99115,Porto Velho,RO,34631,2008,7555.7,214.2,24925.9,938.4,28.0,431.9,751.1,0.21817735554849702
220,-1.83139,-44.614129999999996,Porto Rico do Maranhão,MA,211,2008,117.9,0.0,29.8,53.2,0.1,0.5,9.5,0.5587677725118484
221,-10.54819,-48.54647,Porto Nacional,TO,4472,2008,0.0,0.0,0.0,0.0,565.0,4441.5,31.6,0.0
222,0.61343,-51.7237,Porto Grande,AP,4407,2008,344.1,13.4,3235.6,148.4,19.7,639.8,19.4,0.07808032675289313
223,-6.3838,-47.26834,Porto Franco,MA,1427,2008,559.2,2.5,91.3,0.0,0.2,760.7,15.6,0.39187105816398043
224,-15.532,-57.21941999999999,Porto Estrela,MT,2068,2008,380.3,0.2,225.3,0.0,0.0,1462.4,0.0,0.18389748549323018
225,-15.888,-58.84338,Porto Esperidião,MT,5833,2008,369.5,7.1,216.3,0.0,5.7,5241.5,0.0,0.06334647694153951
226,-11.77239,-56.69871,Porto dos Gaúchos,MT,7048,2008,2950.5,30.2,4026.0,0.0,0.0,48.5,23.0,0.4186293984108967
227,-2.1667799999999997,-52.59636,Porto de Moz,PA,17427,2008,859.8,22.3,9230.2,2742.6,5.0,3135.6,1453.8,0.04933723532449647
228,-11.54951,-47.065870000000004,Porto Alegre do Tocantins,TO,505,2008,0.0,0.0,0.0,0.0,505.1,505.6,0.0,0.0
229,-10.764289999999999,-51.59043,Porto Alegre do Norte,MT,3982,2008,870.6,12.1,665.5,0.0,0.0,2445.9,0.0,0.2186338523355098
230,-9.63535,-67.65836,Porto Acre,AC,2703,2008,1231.5,8.5,1468.4,0.3,2.8,0.0,0.0,0.4556048834628191
231,-2.62095,-50.99664,Portel,PA,25425,2008,1376.9,97.3,20692.9,2119.1,4.3,385.9,845.9,0.05415535889872174
232,-15.428920000000002,-59.30169,Pontes e Lacerda,MT,8639,2008,3858.4,31.0,1452.2,2.6,3.0,3322.8,0.0,0.4466257668711657
233,-16.66906,-52.92828000000001,Ponte Branca,MT,687,2008,0.0,0.0,0.0,0.0,606.9,685.8,0.0,0.0
234,-10.7525,-47.37027,Ponte Alta do Tocantins,TO,6534,2008,0.0,0.0,0.0,0.0,4983.1,6524.1,10.1,0.0
235,-12.066510000000001,-46.57578,Ponte Alta do Bom Jesus,TO,1818,2008,0.0,0.0,0.0,0.0,1819.6,1815.8,0.0,0.0
236,-15.91634,-52.6633,Pontal do Araguaia,MT,2755,2008,0.0,0.0,0.6,0.0,1.2,2742.9,10.3,0.0
237,-1.10948,-49.06293,Ponta de Pedras,PA,3378,2008,51.6,0.0,527.6,81.7,0.1,2254.4,462.6,0.0152753108348135
238,-16.79972,-56.96679,Poconé,MT,17283,2008,77.9,0.0,913.7,9.7,26.8,15557.9,697.0,0.0045073193311346415
239,-4.770980000000001,-44.8038,Poção de Pedras,MA,663,2008,588.9,0.0,0.0,0.0,74.2,0.2,0.0,0.888235294117647
240,-14.54069,-54.66186999999999,Planalto da Serra,MT,2452,2008,551.6,1.2,44.4,0.0,0.2,1855.8,0.0,0.22495921696574225
241,-10.24035,-67.25291,Plácido de Castro,AC,1988,2008,1410.3,3.3,572.7,0.0,5.0,0.0,0.0,0.7094064386317908
242,-3.91426,-54.44242,Placas,PA,7173,2008,1651.0,86.4,4914.1,604.2,3.5,0.1,0.1,0.2301686881360658
243,-9.94502,-50.0224,Pium,TO,10035,2008,34.4,0.0,1668.1,0.0,0.8,8080.3,251.4,0.0034280019930244144
244,-6.734539999999999,-48.25245,Piraquê,TO,1374,2008,1093.9,1.4,207.1,0.0,0.2,72.8,0.0,0.7961426491994178
245,-3.77524,-44.16935,Pirapemas,MA,698,2008,253.3,0.0,2.2,0.0,442.5,0.0,0.0,0.36289398280802293
246,-3.8712,-45.08068,Pio XII,MA,550,2008,479.0,0.0,0.0,0.0,0.0,48.0,23.6,0.8709090909090909
247,-2.49468,-45.14562,Pinheiro,MA,1482,2008,871.2,4.1,70.8,19.4,0.4,414.3,105.9,0.5878542510121458
248,-11.1956,-47.57902,Pindorama do Tocantins,TO,1567,2008,0.0,0.0,0.0,0.0,1567.6,1567.4,0.0,0.0
249,-3.7049,-45.47687,Pindaré-Mirim,MA,275,2008,202.4,0.0,0.0,0.0,0.1,52.8,20.0,0.736
250,-13.010539999999999,-61.735859999999995,Pimenteiras do Oeste,RO,6065,2008,1245.8,6.4,2322.8,0.0,44.2,2429.1,23.1,0.2054080791426216
251,-11.862160000000001,-60.80891,Pimenta Bueno,RO,6280,2008,2357.6,43.4,2870.5,0.0,0.0,1046.7,5.2,0.3754140127388535
252,-6.5522599999999995,-48.99483,Piçarra,PA,3322,2008,2876.2,17.7,381.9,0.0,0.0,0.0,63.9,0.8658037326911499
253,-4.41293,-44.28022,Peritoró,MA,836,2008,232.2,0.0,62.2,0.0,541.6,0.0,0.0,0.2777511961722488
254,-2.56371,-44.91918,Peri Mirim,MA,409,2008,245.5,1.2,34.5,1.8,0.1,126.3,0.8,0.6002444987775061
255,-8.39954,-48.91318,Pequizeiro,TO,1213,2008,843.6,1.0,66.5,0.0,0.0,302.9,0.0,0.6954657873042045
256,-3.2660299999999998,-45.29065,Penalva,MA,792,2008,484.3,2.9,26.9,3.4,0.3,154.7,122.4,0.611489898989899
257,-10.19363,-53.563140000000004,Peixoto de Azevedo,MT,14400,2008,3263.7,71.0,9889.6,0.0,2.9,1172.8,71.0,0.22664583333333332
258,-1.12505,-47.2721,Peixe-Boi,PA,454,2008,357.6,4.0,75.0,0.0,0.6,17.1,3.7,0.7876651982378855
259,-11.93015,-48.58893,Peixe,TO,5315,2008,0.0,0.0,0.0,0.0,5314.4,5316.3,0.0,0.0
260,-2.9883599999999997,-45.42901,Pedro do Rosário,MA,1770,2008,1671.3,3.9,24.1,4.8,0.4,69.4,0.0,0.9442372881355932
261,-9.20402,-48.00201,Pedro Afonso,TO,2021,2008,20.7,0.2,31.1,0.0,0.1,1949.5,19.6,0.01024245423057892
262,-4.65613,-44.54994,Pedreiras,MA,292,2008,179.7,0.0,0.6,0.0,111.7,0.0,0.0,0.6154109589041096
263,-16.78964,-54.251430000000006,Pedra Preta,MT,4107,2008,20.5,0.0,1.5,0.0,0.0,4085.0,0.0,0.004991477964450938
264,1.2324700000000002,-52.686730000000004,Pedra Branca do Amapari,AP,9495,2008,223.4,3.7,6262.4,2971.0,34.0,0.0,4.2,0.02352817272248552
265,-4.52984,-45.38584,Paulo Ramos,MA,1063,2008,1064.0,0.0,0.0,0.0,0.0,0.0,0.0,1.0009407337723424
266,-7.76452,-68.19675,Pauini,AM,42877,2008,210.3,3.2,39781.3,2597.6,2.3,23.7,261.8,0.004904727476269329
267,-7.7248600000000005,-50.13413,Pau D'Arco,PA,1674,2008,924.8,10.9,337.4,0.0,0.1,411.7,0.0,0.5524492234169653
268,-7.5521899999999995,-48.99658,Pau D'Arco,TO,1381,2008,1128.4,1.7,135.4,0.0,0.0,83.7,33.5,0.8170890658942795
269,-6.65188,-44.20576,Pastos Bons,MA,1660,2008,0.0,0.0,0.0,0.0,1310.2,1444.8,0.0,0.0
270,-2.78735,-56.68566,Parintins,AM,5958,2008,949.5,4.6,1419.1,172.4,2.6,1133.2,2281.2,0.1593655589123867
271,-12.3129,-61.428540000000005,Parecis,RO,2568,2008,1122.2,19.7,962.4,0.0,0.0,483.0,0.4,0.436993769470405
272,-6.19825,-50.4301,Parauapebas,PA,6968,2008,1293.6,28.0,5586.7,0.3,0.0,85.6,1.8,0.1856486796785304
273,-13.33915,-54.2842,Paranatinga,MT,24181,2008,2530.5,91.7,4989.1,0.0,5.5,16647.8,8.1,0.10464827757330135
274,-9.56444,-56.64536999999999,Paranaíta,MT,4800,2008,2203.1,41.3,2507.1,0.0,1.5,31.4,56.9,0.45897916666666666
275,-12.75266,-47.78602,Paranã,TO,11321,2008,0.0,0.0,0.0,0.0,11320.9,11311.5,0.0,0.0
276,-10.21749,-48.865159999999996,Paraíso do Tocantins,TO,1274,2008,0.0,0.0,0.0,0.0,0.3,1273.8,0.0,0.0
277,-3.12356,-47.40354,Paragominas,PA,19465,2008,8415.4,66.3,9094.9,1904.5,7.1,7.1,36.0,0.4323349601849473
278,-13.04147,-48.33067,Palmeirópolis,TO,1710,2008,0.0,0.0,0.0,0.0,1710.2,1705.0,0.0,0.0
279,-6.5853,-47.65715,Palmeiras do Tocantins,TO,751,2008,58.1,0.0,22.5,0.0,0.1,669.1,1.2,0.07736351531291612
280,-7.84587,-48.175,Palmeirante,TO,2654,2008,103.6,0.0,13.2,0.0,0.0,2523.5,13.7,0.03903541823662396
281,-2.6896,-44.98717,Palmeirândia,MA,532,2008,440.2,0.1,7.6,3.8,0.1,58.0,22.3,0.8274436090225563
282,-10.18871,-48.111340000000006,Palmas,TO,2227,2008,0.0,0.0,0.0,0.0,0.0,2205.0,22.6,0.0
283,-5.90983,-48.35503,Palestina do Pará,PA,985,2008,808.5,8.0,150.6,0.0,0.0,0.3,25.6,0.8208121827411168
284,-2.50434,-44.119479999999996,Paço do Lumiar,MA,134,2008,72.1,3.3,52.5,0.4,0.4,0.0,8.6,0.5380597014925372
285,4.16686,-60.88685,Pacaraima,RR,8083,2008,68.1,0.3,998.8,604.5,132.4,6264.1,15.1,0.008425089694420388
286,-3.6996900000000004,-50.602579999999996,Pacajá,PA,11851,2008,4598.2,261.2,5707.8,1536.3,8.7,0.0,0.0,0.38800101257277864
287,-10.507819999999999,-62.01015,Ouro Preto do Oeste,RO,1990,2008,1742.2,1.3,230.4,0.0,0.3,15.9,1.2,0.8754773869346734
288,-7.484189999999999,-51.51165,Ourilândia do Norte,PA,14357,2008,1655.7,20.4,9505.3,22.7,0.3,3169.4,3.6,0.11532353555756775
289,-1.48763,-47.12672,Ourém,PA,565,2008,494.7,7.0,62.5,5.0,1.1,1.4,0.3,0.875575221238938
290,0.26778,-57.522490000000005,Oriximiná,PA,107782,2008,1425.1,29.4,86333.9,14513.1,104.7,3636.6,1768.6,0.013222059342005158
291,-10.65995,-48.87706,Oliveira de Fátima,TO,207,2008,0.0,0.0,0.0,0.0,0.6,207.3,0.0,0.0
292,-2.98224,-45.011309999999995,Olinda Nova do Maranhão,MA,200,2008,184.3,0.0,0.1,0.0,0.0,1.4,14.2,0.9215000000000001
293,-4.12269,-45.124320000000004,Olho d'Água das Cunhãs,MA,704,2008,704.6,0.0,0.0,0.0,0.0,0.0,0.0,1.0008522727272728
294,3.18951,-51.77858,Oiapoque,AP,22642,2008,190.5,11.4,9162.7,4286.5,4975.2,3899.9,127.2,0.008413567706033036
295,-2.3858200000000003,-49.92558,Oeiras do Pará,PA,3863,2008,688.5,4.9,2131.1,370.2,1.5,377.7,294.0,0.1782293554232462
296,0.07317,-55.75937,Óbidos,PA,28031,2008,1741.7,41.5,19642.4,693.4,6.5,4595.5,1351.5,0.06213477935143234
297,-15.06182,-53.1936,Novo São Joaquim,MT,5022,2008,1.1,0.0,117.9,0.0,0.5,4900.3,2.2,0.0002190362405416169
298,-12.32775,-50.97263,Novo Santo Antônio,MT,4375,2008,191.4,8.8,494.4,0.0,0.2,3593.3,95.7,0.04374857142857143
299,-4.52485,-50.19409,Novo Repartimento,PA,15432,2008,6488.8,482.3,7681.3,92.6,0.2,1.0,1168.1,0.4204769310523587
300,-7.90803,-55.59551999999999,Novo Progresso,PA,38183,2008,4951.4,236.1,29659.9,28.6,11.1,3457.3,74.7,0.12967551004373673
301,-9.81601,-55.354690000000005,Novo Mundo,MT,5803,2008,2449.1,42.4,2799.3,0.0,0.2,536.1,18.3,0.4220403239703601
302,-11.807830000000001,-46.653890000000004,Novo Jardim,TO,1321,2008,0.0,0.0,0.0,0.0,1321.1,1318.0,0.0,0.0
303,-11.68822,-62.0845,Novo Horizonte do Oeste,RO,852,2008,741.8,3.0,105.6,0.0,0.0,4.6,0.0,0.8706572769953052
304,-11.39761,-57.2737,Novo Horizonte do Norte,MT,909,2008,703.0,2.6,198.7,0.0,0.0,0.0,7.3,0.7733773377337734
305,-6.83379,-60.23604,Novo Aripuanã,AM,41452,2008,860.6,63.0,38048.3,152.5,27.8,1620.2,742.6,0.020761362539805078
306,-12.88746,-46.58528,Novo Alegre,TO,201,2008,0.0,0.0,0.0,0.0,201.5,157.1,0.0,0.0
307,-1.5162799999999999,-61.51599,Novo Airão,AM,38114,2008,112.4,0.9,34939.2,1490.3,1.5,211.9,1358.7,0.0029490475940599256
308,-10.15926,-47.24617,Novo Acordo,TO,2686,2008,0.0,0.0,0.0,0.0,1638.6,2686.9,0.0,0.0
309,-14.67392,-52.44154,Nova Xavantina,MT,5527,2008,782.5,0.1,275.0,0.0,0.0,4443.3,26.2,0.14157770942645195
310,-10.891060000000001,-62.52925,Nova União,RO,815,2008,693.3,4.5,117.6,0.0,0.1,4.0,0.0,0.8506748466257669
311,-12.96602,-54.87016,Nova Ubiratã,MT,12694,2008,4168.0,141.1,5732.9,0.0,0.1,2792.5,0.5,0.3283440995746022
312,-1.16917,-47.4053,Nova Timboteua,PA,492,2008,376.1,2.4,91.7,0.0,0.7,19.5,4.0,0.7644308943089432
313,-10.91215,-55.03085,Nova Santa Helena,MT,2346,2008,1319.4,17.4,1025.4,0.0,0.1,1.1,0.0,0.5624040920716112
314,-10.52683,-48.99716,Nova Rosalândia,TO,518,2008,0.0,0.0,0.0,0.0,0.2,518.4,0.0,0.0
315,-4.02487,-58.586330000000004,Nova Olinda do Norte,AM,5625,2008,411.6,6.5,4485.8,13.9,1.7,281.0,431.0,0.07317333333333334
316,-2.9472400000000003,-45.95551,Nova Olinda do Maranhão,MA,2479,2008,1153.9,2.2,122.3,1201.5,1.3,0.0,0.0,0.46546994755949983
317,-7.65097,-48.345240000000004,Nova Olinda,TO,1573,2008,798.8,0.1,14.7,0.0,0.5,759.0,0.0,0.5078194532739987
318,-14.75593,-57.4141,Nova Olímpia,MT,1554,2008,994.0,4.7,243.3,0.0,0.0,316.7,0.0,0.6396396396396397
319,-14.146279999999999,-51.797509999999996,Nova Nazaré,MT,4042,2008,199.9,11.0,1064.7,0.0,0.8,2769.7,6.9,0.049455714992577934
320,-13.521189999999999,-56.080180000000006,Nova Mutum,MT,9546,2008,2828.7,10.3,3337.1,0.0,0.6,3372.4,7.2,0.29632306725329977
321,-9.926810000000001,-57.2862,Nova Monte Verde,MT,5277,2008,2341.8,23.2,2915.6,0.0,0.0,12.9,6.7,0.44377487208641275
322,-12.76195,-57.10309,Nova Maringá,MT,11528,2008,3045.4,17.7,7786.3,1.7,0.9,685.5,8.2,0.2641741845940319
323,-14.298589999999999,-57.29919,Nova Marilândia,MT,1942,2008,957.1,11.6,420.9,0.0,0.2,563.8,0.0,0.4928424304840371
324,-10.404630000000001,-64.77513,Nova Mamoré,RO,10241,2008,2750.5,66.9,6084.5,0.0,4.6,1358.1,43.3,0.2685772873742799
325,-14.4023,-59.7406,Nova Lacerda,MT,4744,2008,1760.6,19.7,1450.7,33.4,0.0,1499.3,0.0,0.3711214165261383
326,-5.01264,-49.20524,Nova Ipixuna,PA,1569,2008,1118.6,10.6,233.8,0.2,0.0,122.6,93.8,0.712938177182919
327,-6.77152,-44.143190000000004,Nova Iorque,MA,992,2008,0.0,0.0,483.4,0.0,0.0,508.6,0.0,0.0
328,-10.27172,-55.315819999999995,Nova Guarita,MT,1087,2008,923.5,3.2,162.9,0.0,0.0,0.0,0.6,0.8495860165593376
329,-2.3944099999999997,-46.791,Nova Esperança do Piriá,PA,2829,2008,1422.7,16.8,895.2,508.8,2.3,0.0,0.0,0.5028985507246377
330,-7.172810000000001,-46.20838,Nova Colinas,MA,748,2008,0.0,0.0,0.0,0.0,749.9,748.8,0.0,0.0
331,-10.67042,-56.035869999999996,Nova Canaã do Norte,MT,5975,2008,2966.8,21.1,1911.7,0.0,0.0,1059.4,37.1,0.4965355648535565
332,-11.55983,-62.273509999999995,Nova Brasilândia D'Oeste,RO,1167,2008,890.1,7.8,211.8,0.0,0.0,65.1,0.0,0.7627249357326479
333,-14.743070000000001,-55.22435,Nova Brasilândia,MT,3268,2008,1164.2,3.6,194.2,0.0,0.0,1881.9,27.7,0.35624235006119953
334,-9.6969,-57.9698,Nova Bandeirantes,MT,9558,2008,2961.5,125.8,6373.5,0.0,1.1,91.0,130.9,0.3098451558903536
335,-15.933029999999999,-56.3487,Nossa Senhora do Livramento,MT,5200,2008,109.1,0.1,79.7,0.0,3.8,5005.1,2.3,0.02098076923076923
336,-14.38974,-56.69911,Nortelândia,MT,1353,2008,916.0,0.4,286.6,0.0,0.0,150.4,0.0,0.6770140428677014
337,3.8366300000000004,-60.032540000000004,Normandia,RR,7003,2008,19.5,0.3,277.0,225.1,6.9,6451.9,22.6,0.002784520919605883
338,-14.39797,-55.787369999999996,Nobres,MT,3765,2008,331.5,0.7,253.8,0.0,0.0,3179.7,0.0,0.08804780876494024
339,-1.08094,-58.4439,Nhamundá,AM,14132,2008,456.1,0.8,10746.5,1474.1,3.0,344.4,1107.9,0.03227427115765638
340,-6.32397,-47.781659999999995,Nazaré,TO,398,2008,282.1,2.0,32.8,0.0,0.0,83.1,0.0,0.7087939698492463
341,-11.725439999999999,-47.62384,Natividade,TO,3260,2008,0.0,0.0,0.0,0.0,3236.3,3260.4,0.0,0.0
342,-7.01662,-48.76894,Muricilândia,TO,1193,2008,951.6,2.6,215.2,0.0,0.0,0.0,26.2,0.7976529756915339
343,2.53531,-62.003640000000004,Mucajaí,RR,12878,2008,1608.7,216.4,7758.7,3272.9,2.8,196.3,38.6,0.1249184656002485
344,-1.31435,-49.34437,Muaná,PA,3776,2008,97.9,0.0,1686.6,144.1,0.4,1361.3,485.7,0.02592690677966102
345,-5.83817,-47.09465,Montes Altos,MA,1499,2008,174.4,1.8,66.6,0.0,0.0,1258.0,0.0,0.11634422948632422
346,-9.98708,-49.11202,Monte Santo do Tocantins,TO,1096,2008,0.6,0.0,10.8,0.0,0.6,1084.0,0.0,0.0005474452554744525
347,-10.2461,-63.3799,Monte Negro,RO,1955,2008,1345.4,6.7,564.9,0.0,0.0,44.7,0.0,0.6881841432225064
348,-10.735289999999999,-48.02248,Monte do Carmo,TO,3635,2008,0.0,0.0,0.0,0.0,1007.6,3633.6,1.1,0.0
349,-1.02109,-54.286809999999996,Monte Alegre,PA,19516,2008,4121.3,34.4,10566.7,1882.3,6.6,1799.4,1139.7,0.21117544578807135
350,-3.47819,-45.320190000000004,Monção,MA,1362,2008,956.6,14.1,85.6,4.3,0.9,189.0,125.6,0.7023494860499266
351,-2.53518,-49.05922,Moju,PA,9129,2008,3964.2,116.2,4879.2,31.6,8.0,190.4,55.6,0.43424252382517253
352,-2.5495,-49.35737,Mocajuba,PA,872,2008,489.2,0.5,138.3,1.1,0.3,168.2,74.9,0.5610091743119265
353,-2.07065,-44.8448,Mirinzal,MA,696,2008,681.2,0.0,10.7,3.8,0.0,0.0,0.3,0.9787356321839081
354,-15.60276,-58.05495,Mirassol d'Oeste,MT,1077,2008,933.6,5.7,89.6,19.8,0.2,33.8,0.0,0.8668523676880223
355,-11.04481,-62.80644,Mirante da Serra,RO,1205,2008,629.2,5.4,361.4,0.0,0.1,214.3,0.0,0.5221576763485477
356,-9.39541,-48.66686,Miranorte,TO,1036,2008,318.2,0.6,9.3,0.0,0.0,708.5,0.0,0.3071428571428571
357,-3.5499199999999997,-44.52695,Miranda do Norte,MA,357,2008,246.6,15.1,46.7,0.0,50.7,12.8,0.2,0.6907563025210084
358,-6.40255,-44.831759999999996,Mirador,MA,8716,2008,0.0,0.0,0.0,0.0,3916.1,8716.3,0.0,0.0
359,-9.71454,-48.61508,Miracema do Tocantins,TO,2663,2008,0.0,0.0,0.0,0.0,0.0,2650.6,13.0,0.0
360,-11.159410000000001,-61.58328,Ministro Andreazza,RO,804,2008,709.3,3.5,94.7,0.0,0.0,0.0,0.0,0.8822139303482587
361,-1.53536,-51.06862,Melgaço,PA,6781,2008,154.5,4.5,5555.3,377.6,0.9,166.3,526.4,0.022784250110603158
362,-3.16475,-53.21731,Medicilândia,PA,8272,2008,1842.4,27.9,6401.2,24.9,2.7,0.0,0.8,0.22272727272727275
363,-0.04351,-51.97972,Mazagão,AP,13140,2008,102.6,16.0,10913.2,529.7,4.0,1347.5,243.0,0.007808219178082191
364,-6.02067,-47.56977,Maurilândia do Tocantins,TO,741,2008,143.2,0.8,63.5,0.0,0.0,522.8,11.5,0.19325236167341428
365,-5.24148,-58.19461999999999,Maués,AM,40090,2008,1279.8,20.1,36610.6,26.2,6.2,872.3,1294.9,0.03192317286106261
366,-9.97964,-54.15149,Matupá,MT,5151,2008,1870.3,75.4,3062.0,0.0,0.0,218.7,0.0,0.3630945447485925
367,-3.74966,-44.45678,Matões do Norte,MA,793,2008,408.8,5.5,0.0,0.0,380.9,4.6,0.8,0.5155107187894074
368,-3.05864,-45.03755,Matinha,MA,414,2008,289.8,0.5,2.3,0.1,0.1,49.2,72.5,0.7000000000000001
369,-10.70172,-46.53856,Mateiros,TO,9665,2008,0.0,0.0,0.0,0.0,9674.9,9403.3,0.0,0.0
370,-1.39704,-48.32114,Marituba,PA,103,2008,65.9,0.0,29.8,0.0,0.1,0.0,7.2,0.6398058252427185
371,-9.77144,-49.75757,Marianópolis do Tocantins,TO,2096,2008,139.1,1.1,197.1,0.0,0.0,1758.4,1.4,0.06636450381679389
372,-9.09022,-72.49765,Marechal Thaumaturgo,AC,8588,2008,206.8,12.6,7990.0,294.2,96.3,0.2,0.5,0.02408011178388449
373,-10.92424,-54.07501,Marcelândia,MT,12295,2008,3412.7,178.2,8644.8,0.0,4.1,218.8,14.6,0.2775681171207808
374,-0.80045,-47.75464,Marapanim,PA,795,2008,396.2,4.7,233.4,73.9,1.0,41.6,48.9,0.49836477987421385
375,-2.42423,-45.954440000000005,Maranhãozinho,MA,981,2008,763.3,0.0,0.0,591.1,0.0,0.0,0.0,0.7780835881753313
376,-4.72821,-45.552459999999996,Marajá do Sena,MA,881,2008,760.0,16.9,119.8,1.2,0.0,0.0,0.0,0.8626560726447219
377,-0.80608,-47.47954,Maracanã,PA,860,2008,320.7,1.3,328.8,54.8,1.1,33.2,121.4,0.37290697674418605
378,-1.9971,-45.9871,Maracaçumé,MA,635,2008,539.1,0.0,80.1,15.8,0.0,0.0,0.0,0.8489763779527559
379,-5.52503,-49.944179999999996,Marabá,PA,15161,2008,8059.1,351.4,6977.3,0.0,2.4,36.2,86.0,0.5315678385330783
380,-2.61234,-64.70305,Maraã,AM,17221,2008,108.1,3.1,14629.0,26.8,5.8,604.6,1846.7,0.006277219673654259
381,-9.395760000000001,-70.06354,Manoel Urbano,AC,11118,2008,257.1,4.6,10796.8,0.0,14.6,0.0,49.5,0.023124662709120346
382,-6.787089999999999,-61.110009999999996,Manicoré,AM,48689,2008,1468.9,41.5,42226.9,2.5,17.4,4146.5,826.8,0.030169032019552674
383,-7.451410000000001,-73.41241,Mâncio Lima,AC,5762,2008,388.7,4.6,5156.1,21.5,150.6,45.1,0.0,0.06745921555015619
384,-2.5729,-60.37242,Manaus,AM,11473,2008,1232.1,3.0,8677.7,9.3,3.1,3.0,1547.8,0.10739126645166913
385,-3.73889,-60.655519999999996,Manaquiri,AM,4001,2008,488.7,0.7,3021.0,97.7,0.2,106.3,287.1,0.12214446388402898
386,-3.27671,-60.711780000000005,Manacapuru,AM,7381,2008,756.6,2.2,3614.3,779.7,1.8,805.6,1423.0,0.10250643544235198
387,-0.82105,-47.63978,Magalhães Barata,PA,326,2008,161.5,0.4,130.2,3.8,0.6,2.3,27.6,0.495398773006135
388,-1.9896900000000002,-47.50665,Mãe do Rio,PA,471,2008,448.7,0.3,19.6,0.0,1.3,0.0,1.4,0.9526539278131635
389,-9.1898,-61.925990000000006,Machadinho D'Oeste,RO,8590,2008,2766.0,53.1,5380.7,0.0,0.0,385.4,57.9,0.3220023282887078
390,0.58849,-50.962309999999995,Macapá,AP,6419,2008,389.4,7.0,1468.4,488.3,1.9,3119.5,951.5,0.06066365477488705
391,-6.21349,-47.848929999999996,Luzinópolis,TO,281,2008,156.1,0.5,21.0,0.0,0.0,103.9,0.0,0.5555160142348754
392,-1.22159,-45.82058,Luís Domingues,MA,464,2008,304.6,0.9,29.2,103.7,0.2,4.3,22.0,0.6564655172413794
393,-10.97819,-50.93233,Luciara,MT,4152,2008,30.0,2.2,402.6,0.0,0.0,3675.5,43.9,0.0072254335260115606
394,-13.047419999999999,-56.1822,Lucas do Rio Verde,MT,3662,2008,521.0,7.6,646.2,0.0,0.0,2494.8,0.0,0.14227198252321135
395,-7.2038899999999995,-45.170809999999996,Loreto,MA,3638,2008,0.0,0.0,60.0,0.0,0.0,3578.0,0.0,0.0
396,-9.49503,-46.82646,Lizarda,TO,5769,2008,0.0,0.0,0.0,0.0,4144.3,5765.5,0.0,0.0
397,-1.88563,-49.495509999999996,Limoeiro do Ajuru,PA,1494,2008,58.7,0.1,832.2,44.4,0.0,50.9,507.8,0.0392904953145917
398,-4.57029,-44.44604,Lima Campos,MA,325,2008,115.4,0.0,0.0,0.0,210.9,0.0,0.0,0.35507692307692307
399,-12.822980000000001,-46.3478,Lavandeira,TO,524,2008,0.0,0.0,0.0,0.0,525.0,515.5,0.0,0.0
400,0.77776,-52.9379,Laranjal do Jari,AP,30974,2008,174.1,9.3,22800.3,7519.5,270.5,146.9,62.7,0.005620843287918899
401,-15.44721,-57.721090000000004,Lambari D'Oeste,MT,1773,2008,1173.0,2.0,421.9,0.0,0.6,172.7,4.8,0.6615905245346869
402,-6.10131,-46.95503,Lajeado Novo,MA,1054,2008,254.3,0.6,19.4,0.0,0.0,780.3,0.0,0.24127134724857685
403,-9.83859,-48.28634,Lajeado,TO,324,2008,0.0,0.0,0.0,0.0,0.0,314.0,10.3,0.0
404,-4.91226,-45.416959999999996,Lagoa Grande do Maranhão,MA,741,2008,709.9,3.2,30.8,0.3,0.0,0.0,0.0,0.958029689608637
405,-10.34474,-47.49628,Lagoa do Tocantins,TO,917,2008,0.0,0.0,0.0,0.0,512.5,917.7,0.0,0.0
406,-11.04824,-50.2184,Lagoa da Confusão,TO,10588,2008,232.1,7.9,2004.8,0.0,0.4,8239.6,111.1,0.02192104268983755
407,-3.9823,-44.90035,Lago Verde,MA,631,2008,534.1,0.0,0.1,0.0,0.0,82.4,14.4,0.846434231378764
408,-4.60648,-44.9469,Lago dos Rodrigues,MA,196,2008,196.8,0.0,0.0,0.0,0.0,0.0,0.0,1.0040816326530613
409,-4.57135,-45.01907,Lago do Junco,MA,312,2008,312.4,0.0,0.0,0.0,0.0,0.0,0.0,1.0012820512820513
410,-4.71879,-45.223459999999996,Lago da Pedra,MA,1552,2008,1552.0,0.0,0.0,0.0,0.0,0.0,0.0,1.0
411,-8.38295,-65.70994,Lábrea,AM,69672,2008,3106.6,67.0,63519.3,798.1,8.8,1793.3,445.9,0.04458893099092892
412,-4.50575,-68.24058000000001,Jutaí,AM,71756,2008,228.3,4.0,67368.1,2890.9,9.6,97.6,1161.5,0.0031816154746641396
413,-16.19866,-55.005430000000004,Juscimeira,MT,2205,2008,921.1,1.5,38.3,0.0,0.0,1244.4,1.2,0.4177324263038549
414,-2.64774,-56.236909999999995,Juruti,PA,8308,2008,1129.6,11.7,5428.2,5.4,2.5,633.3,1109.0,0.1359653346172364
415,-10.392510000000001,-58.609359999999995,Juruena,MT,2826,2008,1162.4,40.7,1572.0,0.0,0.0,66.5,25.1,0.41132342533616423
416,-3.37471,-66.45025,Juruá,AM,19849,2008,143.3,3.1,16920.6,1897.8,12.0,142.1,733.2,0.007219507279963727
417,-1.88885,-46.11298,Junco do Maranhão,MA,560,2008,544.7,0.0,13.7,0.3,0.0,0.0,1.3,0.9726785714285715
418,-11.52357,-59.196509999999996,Juína,MT,26359,2008,4294.3,54.0,19322.9,58.1,3.1,2639.6,41.0,0.16291589210516333
419,-8.130980000000001,-49.09587,Juarina,TO,482,2008,210.9,0.0,12.5,0.0,0.0,236.9,21.7,0.437551867219917
420,-11.22873,-57.647369999999995,Juara,MT,22666,2008,7767.4,124.5,13170.6,0.0,0.4,1600.6,127.0,0.34268949086737843
421,-5.0114,-44.774570000000004,Joselândia,MA,691,2008,491.2,4.3,44.9,0.5,141.8,0.2,12.4,0.7108538350217076
422,-9.22216,-71.85121,Jordão,AC,5635,2008,127.5,7.6,5485.3,4.6,17.1,0.1,0.4,0.022626441881100266
423,-5.2397599999999995,-47.1731,João Lisboa,MA,638,2008,585.1,5.9,52.2,0.0,0.7,0.0,0.0,0.9170846394984327
424,-10.44844,-61.69061,Ji-Paraná,RO,6955,2008,2595.1,6.1,4256.3,0.0,2.0,66.3,35.3,0.3731272465851905
425,-5.4154,-45.58874,Jenipapo dos Vieiras,MA,1981,2008,1101.1,7.1,715.4,0.0,0.0,164.5,0.0,0.5558303886925795
426,-15.303189999999999,-58.8557,Jauru,MT,1316,2008,1100.8,1.8,102.6,0.0,0.3,112.3,0.0,0.8364741641337385
427,-12.85689,-48.67771,Jaú do Tocantins,TO,2184,2008,0.0,0.0,0.0,0.0,2186.8,2173.2,0.0,0.0
428,-5.85883,-44.28683,Jatobá,MA,598,2008,236.8,20.7,165.3,0.0,0.0,195.9,0.0,0.3959866220735786
429,-10.64842,-62.5532,Jaru,RO,2976,2008,2614.4,2.6,316.7,0.0,0.1,44.8,0.0,0.878494623655914
430,-1.38598,-68.79404,Japurá,AM,57555,2008,52.1,1.6,46307.7,9551.3,121.1,2.6,1520.2,0.0009052210928676918
431,-15.32112,-56.57946999999999,Jangada,MT,1022,2008,0.0,0.0,0.0,0.0,0.0,1022.5,0.0,0.0
432,-4.5925199999999995,-49.20947,Jacundá,PA,2013,2008,1450.9,5.8,297.8,0.0,0.0,0.0,264.3,0.7207650273224044
433,-15.883920000000002,-55.124140000000004,Jaciara,MT,1657,2008,687.0,0.4,11.3,0.0,0.0,958.7,0.0,0.41460470730235366
434,-7.477180000000001,-57.604319999999994,Jacareacanga,PA,53397,2008,1297.1,24.1,46157.9,10.6,8.7,5213.2,709.5,0.02429162687042343
435,-5.07669,-49.89878,Itupiranga,PA,7901,2008,4380.0,227.7,3402.4,0.0,1.1,5.6,111.9,0.5543602075686622
436,-17.3214,-54.56868000000001,Itiquira,MT,8724,2008,160.5,0.0,219.9,0.0,77.9,8259.3,6.4,0.01839752407152682
437,-4.16557,-47.173559999999995,Itinga do Maranhão,MA,3605,2008,2546.0,74.7,1057.8,0.1,1.0,0.0,0.1,0.7062413314840499
438,0.487,-50.62043,Itaubal,AP,1704,2008,88.3,0.2,349.4,67.1,0.3,779.0,419.9,0.051819248826291076
439,-11.12675,-55.571830000000006,Itaúba,MT,4612,2008,1683.3,42.5,2478.2,0.0,0.0,418.5,32.0,0.3649826539462272
440,-9.13212,-63.1238,Itapuã do Oeste,RO,4132,2008,856.3,20.9,3065.8,0.0,0.3,2.5,207.1,0.20723620522749273
441,-8.43914,-48.76023,Itaporã do Tocantins,TO,977,2008,927.7,0.7,48.7,0.0,0.6,0.0,0.0,0.949539406345957
442,-8.29996,-48.04697,Itapiratins,TO,1250,2008,0.0,0.0,0.0,0.0,0.0,1210.9,39.2,0.0
443,-2.54458,-58.65656,Itapiranga,AM,4245,2008,134.3,1.2,3362.6,419.3,0.8,155.6,172.4,0.031637220259128386
444,-3.36235,-44.27902,Itapecuru Mirim,MA,1494,2008,541.4,85.4,632.1,0.3,8.5,308.4,3.3,0.3623828647925033
445,-12.14354,-56.73935,Itanhangá,MT,2927,2008,1465.3,90.7,1457.5,0.0,0.0,0.0,4.2,0.5006149641270926
446,-6.7268300000000005,-67.90389,Itamarati,AM,26042,2008,120.1,1.5,21941.4,3687.2,1.5,3.3,288.5,0.004611780969203594
447,-6.03172,-55.968959999999996,Itaituba,PA,62095,2008,4554.8,171.0,56259.6,5.2,4.3,460.8,810.3,0.07335212174893309
448,-5.18749,-45.755,Itaipava do Grajaú,MA,1045,2008,908.3,5.1,134.7,0.7,1.3,0.0,0.0,0.8691866028708134
449,-5.78728,-47.60538,Itaguatins,TO,745,2008,356.2,1.6,67.9,0.0,0.0,310.0,10.9,0.4781208053691275
450,-3.13511,-58.81276,Itacoatiara,AM,8927,2008,1695.3,27.4,4715.2,18.2,3.4,829.3,1665.6,0.18990702363615997
451,-8.50117,-47.61437,Itacajá,TO,3072,2008,0.0,0.0,0.0,0.0,0.0,3072.4,0.0,0.0
452,-1.8357299999999999,-47.39886,Irituia,PA,1387,2008,1204.7,4.4,157.2,0.0,4.6,17.2,3.3,0.8685652487382841
453,-3.0859099999999997,-60.66479,Iranduba,AM,2229,2008,464.9,2.0,1024.6,301.6,1.2,132.9,303.8,0.2085688649618663
454,2.1801,-61.668240000000004,Iracema,RR,14271,2008,687.4,103.9,9310.2,4130.6,99.9,35.5,7.4,0.04816761264102025
455,-11.11862,-48.42263,Ipueiras,TO,818,2008,0.0,0.0,0.0,0.0,817.3,818.0,0.0,0.0
456,-2.93713,-47.96702,Ipixuna do Pará,PA,5245,2008,2612.9,47.5,2591.6,5.0,2.9,6.7,25.9,0.49816968541468065
457,-7.143339999999999,-71.42004,Ipixuna,AM,12595,2008,207.8,5.1,12213.1,36.7,0.6,66.6,70.2,0.01649861055974593
458,-11.94096,-56.04871,Ipiranga do Norte,MT,3449,2008,1782.7,3.9,1067.3,0.0,0.0,598.8,0.2,0.5168744563641635
459,-1.4552200000000002,-47.89865,Inhangapi,PA,476,2008,326.8,1.1,116.6,0.0,0.6,6.8,25.2,0.6865546218487395
460,-15.32895,-58.60376,Indiavaí,MT,601,2008,564.1,1.0,36.8,0.0,0.1,0.0,0.0,0.9386023294509152
461,-5.3869,-47.57778,Imperatriz,MA,1375,2008,1114.9,4.0,83.7,0.0,0.0,155.1,21.3,0.8108363636363637
462,-2.07583,-49.087540000000004,Igarapé-Miri,PA,2004,2008,453.6,2.3,1024.9,0.1,0.3,203.3,321.8,0.22634730538922157
463,-1.1742299999999999,-47.576190000000004,Igarapé-Açu,PA,789,2008,684.9,4.5,95.1,0.0,1.8,6.0,1.2,0.8680608365019011
464,-4.58244,-44.84341,Igarapé Grande,MA,379,2008,380.0,0.0,0.0,0.0,0.0,0.0,0.0,1.0026385224274406
465,-3.62986,-45.109559999999995,Igarapé do Meio,MA,397,2008,214.9,1.4,8.2,0.2,0.3,172.9,0.5,0.5413098236775818
466,-7.510839999999999,-62.5992,Humaitá,AM,33428,2008,661.3,20.8,28844.2,20.0,2.0,3116.3,784.2,0.019782816800287182
467,-11.65795,-48.9217,Gurupi,TO,1843,2008,0.0,0.0,0.0,0.0,1844.6,1843.3,0.0,0.0
468,-1.12099,-51.49156,Gurupá,PA,8550,2008,94.0,3.6,4037.3,2602.7,1.6,517.1,1297.3,0.010994152046783626
469,-16.3417,-53.548019999999994,Guiratinga,MT,5359,2008,168.3,0.2,0.0,0.0,186.9,5189.0,0.0,0.03140511289419668
470,-2.07767,-44.51918,Guimarães,MA,604,2008,371.5,1.2,51.4,46.2,0.3,7.8,126.8,0.6150662251655629
471,-9.78024,-54.5731,Guarantã do Norte,MT,4713,2008,2377.8,40.5,1610.8,0.0,0.0,724.2,0.2,0.5045194143857415
472,-8.76489,-48.40596,Guaraí,TO,2278,2008,1017.2,4.5,180.0,0.0,0.1,1077.7,3.0,0.44653204565408255
473,-11.32199,-64.41651999999999,Guajará-Mirim,RO,25260,2008,1414.2,16.9,19786.0,0.0,94.6,3798.4,166.8,0.055985748218527316
474,-7.251580000000001,-72.74345,Guajará,AM,7984,2008,457.4,3.8,7274.8,37.7,0.0,206.9,7.2,0.05728957915831663
475,-5.82835,-46.0307,Grajaú,MA,7625,2008,1183.4,56.0,1679.5,0.0,0.0,4762.1,0.0,0.1552
476,-5.39025,-44.33039,Graça Aranha,MA,275,2008,197.9,12.1,77.1,0.0,0.0,0.0,0.0,0.7196363636363636
477,-2.03776,-45.79905,Governador Nunes Freire,MA,1045,2008,1009.4,0.2,9.5,25.6,0.5,0.0,0.0,0.965933014354067
478,-3.40023,-45.89428,Governador Newton Bello,MA,1173,2008,1164.3,0.0,6.0,2.6,0.1,0.0,0.0,0.9925831202046036
479,-5.57153,-44.08064,Governador Luiz Rocha,MA,377,2008,154.3,17.6,168.5,0.0,28.2,26.0,0.0,0.40928381962864724
480,-10.82195,-63.210730000000005,Governador Jorge Teixeira,RO,5131,2008,1345.2,4.0,3594.4,0.0,0.0,191.4,0.0,0.26217111674137594
481,-5.38879,-44.07134,Governador Eugênio Barros,MA,829,2008,296.0,23.5,259.7,0.0,273.3,0.0,0.0,0.35705669481302776
482,-5.72674,-47.31239,Governador Edison Lobão,MA,619,2008,285.4,0.5,20.0,0.0,0.0,299.3,14.3,0.46106623586429724
483,-4.99944,-44.19257,Governador Archer,MA,442,2008,175.0,4.7,0.2,0.0,266.8,0.0,0.0,0.39592760180995473
484,-5.15411,-44.17192,Gonçalves Dias,MA,888,2008,505.0,20.9,257.6,0.0,125.4,0.0,0.0,0.5686936936936937
485,-8.0201,-47.47381,Goiatins,TO,6450,2008,0.0,0.0,0.0,0.0,0.0,6434.6,15.9,0.0
486,-8.91938,-49.017379999999996,Goianorte,TO,1805,2008,99.8,0.4,54.6,0.0,0.1,1650.5,0.0,0.05529085872576177
487,-4.01828,-48.73253,Goianésia do Pará,PA,7048,2008,3640.3,35.9,2923.8,0.8,1.8,0.0,481.3,0.5165011350737798
488,-1.2833,-45.6723,Godofredo Viana,MA,684,2008,288.4,0.0,109.7,184.5,0.3,28.0,73.1,0.42163742690058476
489,-15.86948,-58.262280000000004,Glória D'Oeste,MT,849,2008,296.4,0.4,46.1,0.0,0.0,506.5,0.0,0.34911660777385156
490,-15.593639999999999,-53.01175,General Carneiro,MT,3793,2008,0.0,0.0,0.0,0.0,1.7,3790.3,1.5,0.0
491,-12.87129,-53.35524,Gaúcha do Norte,MT,16898,2008,3495.8,197.9,8761.9,0.0,0.0,4609.7,30.6,0.20687655343827674
492,-2.22129,-47.08493,Garrafão do Norte,PA,1610,2008,1393.1,8.1,208.4,7.3,1.2,0.0,0.0,0.86527950310559
493,-5.66423,-44.02896,Fortuna,MA,706,2008,263.6,25.0,178.6,0.0,258.5,5.3,0.0,0.37337110481586405
494,-6.987360000000001,-46.11264,Fortaleza dos Nogueiras,MA,1680,2008,0.0,0.0,0.0,0.0,1680.7,1680.7,0.0,0.0
495,-9.08579,-48.578340000000004,Fortaleza do Tabocão,TO,624,2008,402.6,0.0,1.8,0.0,0.0,219.6,0.0,0.6451923076923077
496,-12.11997,-50.36955,Formoso do Araguaia,TO,13453,2008,183.8,2.2,478.0,0.0,365.8,12257.6,167.8,0.013662380138259125
497,-6.57908,-46.156040000000004,Formosa da Serra Negra,MA,3977,2008,31.9,0.8,0.0,0.0,2393.8,3918.9,0.0,0.008021121448327884
498,-2.5459400000000003,-66.9133,Fonte Boa,AM,12392,2008,96.8,1.9,11260.7,64.9,3.0,154.1,812.5,0.007811491284699806
499,-7.552460000000001,-49.60538,Floresta do Araguaia,PA,3454,2008,1866.9,21.1,363.8,0.0,0.2,1177.7,45.4,0.5405037637521715
500,-7.51348,-47.85975,Filadélfia,TO,1998,2008,0.0,0.0,0.0,0.0,0.0,1975.5,23.5,0.0
501,-15.49255,-58.729459999999996,Figueirópolis D'Oeste,MT,893,2008,740.3,1.0,46.6,0.0,0.0,106.1,0.0,0.8290033594624859
502,-12.23892,-49.41498,Figueirópolis,TO,1935,2008,0.0,0.0,0.0,0.0,1620.3,1935.3,0.0,0.0
503,0.8781899999999999,-51.22526,Ferreira Gomes,AP,5047,2008,133.7,2.6,2720.8,476.3,7.1,1643.1,66.0,0.026490984743411924
504,-6.23471,-45.32776,Fernando Falcão,MA,3547,2008,34.0,2.4,85.4,0.0,0.0,3427.6,0.0,0.00958556526642233
505,-11.82178,-53.9156,Feliz Natal,MT,11448,2008,1969.1,223.5,8750.4,0.0,4.1,703.0,21.4,0.17200384346610761
506,-7.0053399999999995,-46.64737,Feira Nova do Maranhão,MA,1486,2008,0.0,0.0,0.0,0.0,1315.5,1486.9,0.0,0.0
507,-8.89638,-70.65907,Feijó,AC,29179,2008,1317.0,28.8,27779.3,0.1,64.9,0.4,17.3,0.04513519997258302
508,-10.82808,-48.902590000000004,Fátima,TO,385,2008,0.0,0.0,0.0,0.0,284.3,385.0,0.0,0.0
509,-1.10869,-57.80093000000001,Faro,PA,11794,2008,226.2,2.0,10384.7,913.0,1.4,87.6,181.1,0.01917924368322876
510,-6.76357,-47.18332,Estreito,MA,2737,2008,10.3,0.2,5.3,0.0,0.0,2700.3,21.1,0.0037632444282060654
511,-11.36838,-60.731080000000006,Espigão D'Oeste,RO,4551,2008,2079.9,10.7,2174.3,0.0,0.0,296.5,0.3,0.4570204350692156
512,-4.9173599999999995,-44.90586,Esperantinópolis,MA,486,2008,449.6,0.0,0.0,0.0,36.1,0.4,0.0,0.9251028806584363
513,-5.31119,-48.495709999999995,Esperantina,TO,505,2008,215.2,1.1,12.9,0.0,0.0,227.5,49.4,0.42613861386138613
514,-10.8794,-68.58788,Epitaciolândia,AC,1703,2008,811.9,4.4,881.4,0.0,9.6,0.0,0.1,0.47674691720493245
515,-7.61678,-70.19515,Envira,AM,7793,2008,236.8,7.1,7488.0,0.0,5.3,0.1,62.8,0.030386244065186706
516,-6.12012,-49.26085,Eldorado dos Carajás,PA,2968,2008,2670.2,30.4,297.8,0.0,0.0,0.0,0.0,0.8996630727762802
517,-7.0407399999999996,-70.12601,Eirunepé,AM,15608,2008,364.4,3.4,14879.2,5.4,5.2,172.1,181.7,0.023347001537672985
518,-11.37865,-49.39815,Dueré,TO,3435,2008,34.4,0.1,0.0,0.0,1151.7,3150.7,3.9,0.010014556040756914
519,-5.02168,-44.39893,Dom Pedro,MA,374,2008,216.0,4.2,6.8,0.0,151.2,0.0,0.0,0.5775401069518716
520,-4.20041,-47.82354,Dom Eliseu,PA,5296,2008,3320.5,54.2,1973.9,0.0,1.6,0.0,0.0,0.6269826283987915
521,-15.671170000000002,-54.80259,Dom Aquino,MT,2208,2008,799.5,0.2,48.8,0.0,0.0,1359.7,0.0,0.36209239130434784
522,-9.333060000000001,-49.019259999999996,Dois Irmãos do Tocantins,TO,3772,2008,64.6,2.7,77.5,0.0,1.9,3628.0,0.0,0.017126193001060445
523,-9.63968,-49.40955,Divinópolis do Tocantins,TO,2355,2008,18.4,0.0,57.3,0.0,0.1,2279.2,0.0,0.00781316348195329
524,-11.79703,-46.97684,Dianópolis,TO,3240,2008,0.0,0.0,0.0,0.0,3239.9,3235.3,0.0,0.0
525,-14.142,-57.21209,Diamantino,MT,8135,2008,606.7,5.1,1809.8,0.0,1.1,5717.4,0.0,0.07457897971727105
526,-14.720460000000001,-56.952459999999995,Denise,MT,1303,2008,1140.6,0.9,157.0,0.0,0.0,5.4,0.0,0.8753645433614734
527,-5.5833699999999995,-47.31469,Davinópolis,MA,339,2008,284.5,2.1,54.5,0.0,0.0,0.0,0.0,0.8392330383480826
528,-6.77305,-47.710440000000006,Darcinópolis,TO,1649,2008,108.0,0.6,26.5,0.0,0.0,1509.6,4.9,0.06549423893268648
529,1.0666,-50.328070000000004,Cutias,AP,2117,2008,177.8,1.9,301.1,121.3,0.3,1452.3,64.2,0.08398677373641947
530,-15.62296,-57.874880000000005,Curvelândia,MT,362,2008,295.4,0.9,28.8,0.5,0.2,37.1,0.0,0.8160220994475138
531,-1.51676,-44.843379999999996,Cururupu,MA,1235,2008,610.8,0.0,274.4,168.2,0.5,12.6,168.5,0.49457489878542504
532,-0.70617,-47.85268,Curuçá,PA,675,2008,266.1,2.2,251.6,85.8,1.6,0.9,69.0,0.39422222222222225
533,-1.7829700000000002,-55.10334,Curuá,PA,1430,2008,311.5,4.0,377.9,0.0,0.9,272.6,467.1,0.21783216783216783
534,-1.56776,-50.04488,Curralinho,PA,3626,2008,187.0,0.7,2411.5,414.8,0.6,241.5,370.6,0.05157198014340871
535,-6.25014,-49.69278,Curionópolis,PA,2375,2008,2052.9,4.8,315.9,0.0,1.6,4.6,0.0,0.8643789473684211
536,-8.50875,-51.37212,Cumaru do Norte,PA,17105,2008,6960.8,186.2,8698.0,9.9,0.3,1436.0,0.0,0.4069453376205788
537,-9.12763,-62.53091,Cujubim,RO,3904,2008,1365.8,49.4,2535.7,0.0,0.3,0.0,2.2,0.34984631147540984
538,-15.41888,-56.00402,Cuiabá,MT,3496,2008,169.5,0.0,166.9,0.0,0.5,3159.1,0.0,0.04848398169336384
539,-7.955589999999999,-72.73617,Cruzeiro do Sul,AC,9202,2008,955.4,10.8,6962.1,1224.6,39.2,20.7,0.0,0.10382525537926537
540,-11.15672,-49.06416,Crixás do Tocantins,TO,990,2008,0.0,0.0,0.0,0.0,718.4,990.5,0.0,0.0
541,-10.63885,-49.312020000000004,Cristalândia,TO,1854,2008,0.0,0.0,0.0,0.0,97.9,1852.9,0.0,0.0
542,-8.43754,-49.16992,Couto Magalhães,TO,1591,2008,230.5,3.3,90.9,0.0,0.0,1230.2,39.4,0.14487743557511
543,-9.461889999999999,-58.634409999999995,Cotriguaçu,MT,9527,2008,1841.6,77.6,7436.2,0.0,0.1,116.0,133.1,0.19330324341345648
544,-12.08558,-64.18555,Costa Marques,RO,5058,2008,1605.4,103.7,2430.4,376.3,66.2,558.9,20.8,0.3173981810992487
545,-12.88061,-61.22315,Corumbiara,RO,3081,2008,2142.9,4.5,838.7,0.0,0.0,99.4,0.0,0.6955209347614412
546,-4.16542,-44.14074,Coroatá,MA,2298,2008,963.9,0.0,2.2,0.0,1331.9,0.0,0.0,0.41945169712793734
547,-14.61969,-59.313159999999996,Conquista D'Oeste,MT,2707,2008,580.5,1.7,808.0,0.0,2.2,1316.3,0.0,0.21444403398596232
548,-10.40724,-51.737429999999996,Confresa,MT,5801,2008,3686.0,65.2,1595.2,0.0,197.4,320.3,2.1,0.6354076883295984
549,-1.87841,-47.974920000000004,Concórdia do Pará,PA,695,2008,605.8,2.5,88.3,0.0,0.6,0.0,0.3,0.8716546762589927
550,-12.14589,-47.28829,Conceição do Tocantins,TO,2519,2008,0.0,0.0,0.0,0.0,2520.9,2519.6,0.0,0.0
551,-3.79264,-44.82907,Conceição do Lago-Açu,MA,742,2008,531.0,0.0,0.0,0.0,0.1,98.7,113.0,0.715633423180593
552,-8.206719999999999,-49.54786,Conceição do Araguaia,PA,5847,2008,3029.2,47.7,825.7,0.0,0.2,1874.8,117.1,0.518077646656405
553,-13.19225,-59.8433,Comodoro,MT,21863,2008,2986.7,45.5,9079.3,0.0,21.2,9773.1,2.7,0.13660979737455975
554,-12.83387,-46.4895,Combinado,TO,211,2008,0.0,0.0,0.0,0.0,211.2,194.4,0.0,0.0
555,-13.13652,-60.53715,Colorado do Oeste,RO,1460,2008,1187.5,1.8,218.6,0.0,0.0,53.9,0.0,0.8133561643835616
556,-9.42457,-61.08215,Colniza,MT,28123,2008,3455.5,125.0,24284.2,8.5,6.9,311.5,56.4,0.12287095971269069
557,-8.89352,-48.7444,Colméia,TO,995,2008,752.5,0.7,21.3,0.0,0.4,220.8,0.0,0.7562814070351759
558,-8.06639,-48.53996,Colinas do Tocantins,TO,847,2008,662.9,0.3,3.7,0.0,0.5,179.9,0.0,0.7826446280991736
559,-6.08345,-44.102109999999996,Colinas,MA,2011,2008,177.8,11.9,143.0,0.0,251.3,1438.9,0.0,0.08841372451516659
560,-10.56223,-55.44101,Colíder,MT,3039,2008,2500.2,8.5,532.4,0.0,0.0,2.3,4.1,0.8227048371174728
561,-0.89755,-48.27572,Colares,PA,612,2008,90.2,0.5,132.9,0.0,0.4,15.9,372.6,0.14738562091503268
562,-3.12907,-63.20401,Codajás,AM,18944,2008,259.1,1.4,14915.2,1597.0,2.7,729.2,1440.8,0.013677153716216217
563,-13.841470000000001,-51.22546,Cocalinho,MT,16560,2008,231.4,1.2,1740.2,0.0,26.2,14449.5,112.7,0.013973429951690822
564,-4.03545,-63.534659999999995,Coari,AM,58828,2008,759.7,3.1,52302.1,2178.7,2.6,823.1,2761.8,0.012913918542190794
565,-11.47825,-55.06672,Cláudia,MT,3865,2008,1514.2,26.6,2341.9,0.0,0.0,0.0,8.9,0.39177231565329884
566,-5.05561,-47.80973,Cidelândia,MA,1474,2008,1289.5,9.9,155.8,0.5,0.6,20.8,6.8,0.8748303934871099
567,-12.57882,-60.88638,Chupinguaia,RO,5164,2008,2625.6,17.9,2209.6,0.0,0.0,328.4,0.4,0.5084430673896204
568,0.01942,-49.885059999999996,Chaves,PA,13116,2008,92.1,0.2,2866.9,1158.2,0.9,5236.2,3761.7,0.007021957913998169
569,-15.100060000000001,-55.49593,Chapada dos Guimarães,MT,6250,2008,388.9,0.1,143.6,0.0,1.8,5516.4,199.3,0.062223999999999995
570,-10.16549,-49.17753,Chapada de Areia,TO,661,2008,1.7,0.0,9.9,0.0,0.5,648.9,0.0,0.002571860816944024
571,-11.51346,-47.82991,Chapada da Natividade,TO,1655,2008,0.0,0.0,0.0,0.0,1679.9,1655.2,0.0,0.0
572,-13.18361,-61.20455,Cerejeiras,RO,2805,2008,798.3,2.1,762.3,0.0,0.0,1244.4,0.0,0.28459893048128343
573,-3.06829,-46.47701,Centro Novo do Maranhão,MA,8329,2008,2196.1,15.6,1605.2,4523.1,4.3,0.0,0.3,0.2636691079361268
574,-2.34154,-46.11334,Centro do Guilherme,MA,1084,2008,887.2,1.2,0.0,530.3,0.0,0.0,0.0,0.818450184501845
575,-2.2546,-44.85014,Central do Maranhão,MA,370,2008,258.9,0.0,2.0,10.0,0.0,97.7,1.4,0.6997297297297297
576,-9.07581,-47.43855,Centenário,TO,1967,2008,0.0,0.0,0.0,0.0,0.0,1967.7,0.0,0.0
577,-1.9472200000000002,-44.571329999999996,Cedral,MA,291,2008,229.5,0.0,21.0,33.3,0.2,0.2,6.8,0.788659793814433
578,-11.43746,-61.89399,Castanheiras,RO,901,2008,716.6,5.2,181.3,0.0,0.0,0.6,2.5,0.795338512763596
579,-10.95372,-58.64204,Castanheira,MT,3963,2008,2481.5,28.4,1448.4,0.0,1.0,3.4,28.7,0.6261670451678022
580,-1.26528,-47.937129999999996,Castanhal,PA,1034,2008,898.0,5.6,132.2,0.0,2.7,0.0,1.1,0.8684719535783365
581,-9.37187,-49.8481,Caseara,TO,1697,2008,264.0,2.5,319.8,0.0,0.1,1079.1,34.0,0.15556865055981142
582,-1.24815,-45.9977,Carutapera,MA,1239,2008,643.1,0.9,128.9,274.0,0.9,112.8,79.3,0.5190476190476191
583,-5.33031,-48.00378,Carrasco Bonito,TO,194,2008,131.3,0.3,0.4,0.0,0.2,57.9,4.2,0.6768041237113402
584,-7.452719999999999,-47.305440000000004,Carolina,MA,6485,2008,0.0,0.0,0.0,0.0,328.6,6429.6,55.1,0.0
585,0.9453799999999999,-59.32614,Caroebe,RR,12120,2008,879.0,38.8,10667.6,469.7,7.7,12.8,83.2,0.07252475247524752
586,-7.0374,-48.37437,Carmolândia,TO,340,2008,307.3,0.1,32.6,0.0,0.1,0.0,0.0,0.9038235294117647
587,-10.063880000000001,-55.74729,Carlinda,MT,2417,2008,1714.2,4.1,670.6,0.0,0.0,0.0,32.2,0.7092263136119156
588,-11.94736,-49.13968,Cariri do Tocantins,TO,1130,2008,0.0,0.0,0.0,0.0,1104.9,1130.6,0.0,0.0
589,-3.3047699999999995,-59.555969999999995,Careiro da Várzea,AM,2641,2008,489.0,14.0,814.5,0.9,0.8,707.8,628.0,0.18515713744793638
590,-3.749,-60.147009999999995,Careiro,AM,6127,2008,1093.7,6.5,4541.6,92.7,1.4,80.7,316.9,0.17850497796637832
591,-5.17242,-67.49476,Carauari,AM,26469,2008,289.6,2.5,25681.3,78.4,7.1,12.7,399.9,0.010941100910499076
592,0.31228,-62.107769999999995,Caracaraí,RR,47818,2008,956.4,42.8,28815.1,2973.0,9.6,14489.7,574.2,0.02000083650508177
593,-10.455860000000001,-67.86778000000001,Capixaba,AC,1760,2008,834.3,9.0,917.8,0.0,7.9,0.0,0.0,0.4740340909090909
594,-2.06616,-47.25773,Capitão Poço,PA,2924,2008,2544.3,7.3,350.4,22.1,3.4,2.0,1.8,0.8701436388508893
595,-4.68617,-44.31678,Capinzal do Norte,MA,598,2008,208.4,0.0,0.0,0.0,417.9,0.0,0.0,0.348494983277592
596,-1.18797,-47.12751,Capanema,PA,619,2008,512.8,4.0,71.6,1.5,1.2,29.5,2.4,0.82843295638126
597,-7.45596,-63.90278000000001,Canutama,AM,30278,2008,887.1,39.0,28033.0,67.5,5.3,988.3,296.8,0.02929850056146377
598,-3.6499599999999996,-44.30194,Cantanhede,MA,783,2008,216.3,1.4,0.0,0.0,573.2,4.6,0.0,0.27624521072796937
599,2.29596,-60.53716,Cantá,RR,7715,2008,1434.1,123.2,5292.7,79.2,2.3,826.5,80.2,0.1858846403110823
600,-1.36295,-45.55652,Cândido Mendes,MA,1635,2008,913.7,3.7,219.7,341.4,0.8,79.8,79.6,0.5588379204892967
601,-8.964039999999999,-63.53626,Candeias do Jamari,RO,6931,2008,1750.2,49.1,4799.6,0.0,0.2,0.0,381.0,0.25251767421728466
602,-13.19259,-52.63275,Canarana,MT,10840,2008,1874.4,5.6,2172.8,0.0,1.8,6784.7,6.3,0.1729151291512915
603,-11.23109,-51.79815,Canabrava do Norte,MT,3451,2008,1618.1,29.3,631.6,0.0,0.0,1201.1,0.2,0.46887858591712545
604,-6.48129,-50.03153,Canaã dos Carajás,PA,3156,2008,1732.4,8.9,1317.9,0.0,0.0,105.6,0.1,0.5489226869455006
605,-8.21406,-46.771370000000005,Campos Lindos,TO,3266,2008,0.1,0.0,0.2,0.0,1.3,3264.4,0.0,3.0618493570116355e-05
606,-13.57465,-59.22724,Campos de Júlio,MT,6831,2008,106.0,0.8,472.0,0.3,4.6,6248.1,0.0,0.015517493778363343
607,-15.4248,-55.01614,Campo Verde,MT,4794,2008,196.2,1.6,52.5,0.0,1.1,4544.2,0.0,0.0409261576971214
608,-13.656839999999999,-57.88715,Campo Novo do Parecis,MT,9467,2008,263.6,0.9,1572.0,5.0,0.0,7626.4,0.0,0.0278440899968311
609,-10.497710000000001,-63.76416999999999,Campo Novo de Rondônia,RO,3491,2008,1833.2,20.2,1383.6,0.0,0.0,274.2,0.0,0.525121741621312
610,-14.2559,-53.18637,Campinápolis,MT,5968,2008,0.6,0.0,7.5,0.0,3.8,5956.1,0.0,0.00010053619302949061
611,-6.1772,-47.239329999999995,Campestre do Maranhão,MA,618,2008,407.1,1.7,46.9,0.0,0.0,154.3,9.7,0.65873786407767
612,-2.2808200000000003,-49.51546,Cametá,PA,3090,2008,1092.2,0.8,868.0,23.0,0.6,657.9,448.3,0.3534627831715211
613,2.62983,-51.23225,Calçoene,AP,14283,2008,160.9,6.3,7085.8,4481.3,432.1,1950.7,172.2,0.011265140376671569
614,-3.40294,-45.00291,Cajari,MA,551,2008,58.2,3.1,27.9,0.1,0.1,352.2,112.5,0.10562613430127042
615,-2.86835,-44.61461,Cajapió,MA,918,2008,84.9,0.0,326.8,4.6,0.0,116.1,385.6,0.09248366013071896
616,-11.30292,-61.25045,Cacoal,RO,3821,2008,2486.0,4.6,1303.0,0.0,0.0,26.2,5.8,0.6506150222454855
617,-6.096769999999999,-47.85022,Cachoeirinha,TO,354,2008,108.6,0.5,38.1,0.0,0.0,207.3,0.0,0.30677966101694915
618,-2.0107,-46.41077,Cachoeira do Piriá,PA,2465,2008,1255.4,22.9,975.6,222.7,2.9,0.0,8.4,0.509290060851927
619,-0.81338,-48.95588,Cachoeira do Arari,PA,3115,2008,71.9,0.0,309.1,0.6,0.0,2267.7,465.7,0.023081861958266454
620,-16.539920000000002,-57.79439,Cáceres,MT,24399,2008,1936.3,14.4,223.8,28.3,1338.2,19780.8,1091.6,0.07935980982827165
621,-10.32935,-62.96801,Cacaulândia,RO,1985,2008,1452.7,6.9,491.2,0.0,0.0,41.1,0.0,0.73183879093199
622,-13.50574,-60.67742,Cabixi,RO,1322,2008,969.3,3.8,335.5,0.0,2.2,11.3,3.7,0.7332072617246596
623,-3.0546,-61.93934,Caapiranga,AM,9550,2008,232.3,0.2,8425.8,281.8,0.6,181.9,427.6,0.024324607329842932
624,-10.087010000000001,-63.91064,Buritis,RO,3315,2008,2155.1,20.8,1155.0,0.0,0.0,4.8,0.1,0.650105580693816
625,-5.5122,-47.09218,Buritirana,MA,824,2008,663.8,24.2,146.3,0.0,0.0,13.9,0.0,0.8055825242718446
626,-4.421069999999999,-46.360459999999996,Buriticupu,MA,2568,2008,1888.3,58.1,672.6,5.4,0.7,0.0,1.0,0.7353193146417445
627,-5.34998,-48.15082,Buriti do Tocantins,TO,250,2008,214.0,0.1,1.2,0.0,0.0,29.0,5.8,0.856
628,-1.65367,-48.05474,Bujaru,PA,1010,2008,650.4,5.7,287.1,0.0,1.4,11.8,59.3,0.643960396039604
629,-9.60105,-68.22547,Bujari,AC,3104,2008,1159.0,16.6,1944.3,0.0,0.5,0.0,0.2,0.37338917525773196
630,-1.15638,-50.43788,Breves,PA,9572,2008,534.8,4.0,6923.5,1002.3,2.3,86.2,1022.9,0.05587129126619306
631,-3.7568599999999996,-49.46757,Breu Branco,PA,3953,2008,2664.4,68.2,1022.2,0.0,2.6,0.9,262.9,0.6740197318492285
632,-5.763730000000001,-48.49835,Brejo Grande do Araguaia,PA,1292,2008,1050.0,8.9,185.5,0.0,0.0,29.8,26.7,0.8126934984520123
633,-4.39135,-45.56852,Brejo de Areia,MA,365,2008,365.1,0.0,0.0,0.0,0.0,0.0,0.0,1.0002739726027399
634,-11.06608,-48.690690000000004,Brejinho de Nazaré,TO,1731,2008,0.0,0.0,0.0,0.0,1637.4,1729.1,1.9,0.0
635,-12.10929,-58.17906,Brasnorte,MT,15999,2008,4267.2,117.2,7935.1,0.0,0.0,3762.9,33.8,0.266716669791862
636,-10.70365,-69.18608,Brasiléia,AC,4062,2008,1247.4,12.9,2799.5,0.1,14.6,0.0,0.4,0.3070901033973412
637,-8.27327,-48.46058,Brasilândia do Tocantins,TO,643,2008,218.9,0.0,4.8,0.0,0.2,419.1,0.0,0.34043545878693626
638,-3.3035900000000002,-52.609609999999996,Brasil Novo,PA,6368,2008,2427.8,17.5,3202.6,730.5,2.1,0.1,4.9,0.38125000000000003
639,-0.9552799999999999,-46.65764,Bragança,PA,2107,2008,1713.3,1.2,185.0,114.4,0.5,37.6,56.2,0.8131466540104414
640,-5.33176,-59.23777,Borba,AM,44452,2008,512.3,8.8,41492.5,9.0,13.0,586.5,1838.7,0.011524790785566452
641,-1.39347,-47.31005,Bonito,PA,590,2008,537.3,6.8,51.3,0.0,1.4,0.0,0.0,0.9106779661016948
642,2.7932900000000003,-60.1737,Bonfim,RR,8141,2008,364.2,19.7,1452.1,138.1,9.2,6134.1,43.3,0.044736518855177494
643,-4.2986699999999995,-45.09405,Bom Lugar,MA,451,2008,451.8,0.0,0.0,0.0,0.0,0.0,0.0,1.0017738359201773
644,-5.02798,-48.77112,Bom Jesus do Tocantins,PA,2827,2008,1726.6,10.6,990.4,0.0,0.8,70.0,39.2,0.6107534488857446
645,-9.00182,-47.86311,Bom Jesus do Tocantins,TO,1338,2008,6.3,0.0,8.1,0.0,0.0,1314.6,9.0,0.0047085201793721975
646,-12.20214,-51.77758,Bom Jesus do Araguaia,MT,4282,2008,2691.3,14.5,1213.8,0.0,0.0,375.3,1.6,0.628514712751051
647,-4.52261,-46.70062,Bom Jesus das Selvas,MA,2700,2008,2124.6,54.6,575.4,0.0,0.0,0.0,0.0,0.7868888888888889
648,-3.96461,-46.50727,Bom Jardim,MA,6648,2008,3486.0,95.5,2501.1,596.1,1.4,55.9,7.5,0.5243682310469314
649,-8.81858,-68.00168000000001,Boca do Acre,AM,22595,2008,1978.7,39.4,20430.6,1.4,1.9,58.4,124.0,0.08757247178579332
650,-3.15669,-57.90464,Boa Vista do Ramos,AM,2588,2008,200.7,0.3,1116.9,10.8,1.1,852.8,405.7,0.0775502318392581
651,-1.7692900000000003,-46.20581,Boa Vista do Gurupi,MA,407,2008,315.0,0.5,63.7,22.6,0.2,0.0,5.5,0.773955773955774
652,3.01737,-60.743840000000006,Boa Vista,RR,5726,2008,20.2,2.5,224.3,5.4,0.2,5381.9,94.0,0.0035277680754453367
653,-4.54242,-61.73805,Beruri,AM,17411,2008,203.4,2.4,15690.4,55.6,2.7,886.1,572.8,0.011682269829418184
654,-7.98945,-48.98928,Bernardo Sayão,TO,930,2008,894.5,1.0,21.4,0.0,0.0,0.0,14.1,0.9618279569892473
655,-4.66641,-44.682759999999995,Bernardo do Mearim,MA,264,2008,190.3,0.0,0.0,0.0,74.1,0.0,0.0,0.7208333333333333
656,-2.44278,-44.81342,Bequimão,MA,779,2008,468.4,0.2,37.3,37.0,0.1,195.8,40.4,0.6012836970474967
657,-5.497669999999999,-70.32124,Benjamin Constant,AM,9146,2008,186.0,0.6,7719.4,1018.4,17.4,0.0,204.8,0.02033675923901159
658,-1.36009,-48.261340000000004,Benevides,PA,189,2008,124.5,0.2,55.8,0.0,0.4,0.0,8.3,0.6587301587301587
659,-7.159489999999999,-44.58334,Benedito Leite,MA,1804,2008,0.0,0.0,122.3,0.0,0.0,1681.7,0.0,0.0
660,-3.24702,-54.936859999999996,Belterra,PA,4399,2008,795.3,4.9,2525.3,470.5,2.4,0.0,605.5,0.18079108888383721
661,-1.27265,-48.500240000000005,Belém,PA,1070,2008,247.4,0.9,233.7,0.0,0.5,7.1,581.3,0.23121495327102803
662,-3.7705300000000004,-45.253170000000004,Bela Vista do Maranhão,MA,147,2008,127.0,0.0,0.0,0.0,0.0,20.8,0.0,0.8639455782312925
663,-9.90013,-48.78047,Barrolândia,TO,715,2008,0.0,0.0,0.0,0.0,0.3,714.9,0.0,0.0
664,-3.13292,-57.23915,Barreirinha,AM,5760,2008,762.0,7.9,3444.4,186.7,2.2,408.6,956.1,0.13229166666666667
665,-7.71197,-47.63915,Barra do Ouro,TO,1112,2008,0.0,0.0,0.0,0.0,0.0,1093.1,19.7,0.0
666,-15.356079999999999,-52.65919,Barra do Garças,MT,9146,2008,1273.9,4.8,228.6,0.0,4.9,7626.4,12.2,0.1392849333041767
667,-5.68391,-45.23172,Barra do Corda,MA,7962,2008,2941.2,69.2,2515.3,0.0,1.0,2499.9,4.6,0.36940467219291634
668,-14.988579999999999,-57.97035,Barra do Bugres,MT,6066,2008,3309.8,9.1,1937.1,0.0,0.0,815.7,3.4,0.5456313880646225
669,-0.14071,-63.185719999999996,Barcelos,AM,124163,2008,197.0,1.5,89363.7,12959.5,82.8,17060.1,4499.9,0.001586624034535248
670,-1.44539,-48.637029999999996,Barcarena,PA,1316,2008,319.6,1.1,466.1,0.0,0.7,1.9,527.7,0.24285714285714288
671,-16.75732,-56.01455,Barão de Melgaço,MT,11187,2008,360.2,4.6,2190.4,24.6,9.1,8493.6,109.1,0.0321980870653437
672,-7.47905,-50.67811,Bannach,PA,2964,2008,2112.8,48.6,788.7,0.0,0.0,62.5,0.0,0.7128205128205128
673,-7.99015,-48.71085,Bandeirantes do Tocantins,TO,1548,2008,1499.9,0.6,47.9,0.0,0.0,0.2,0.0,0.9689276485788114
674,-8.28674,-46.26008,Balsas,MA,13259,2008,0.0,0.0,0.0,0.0,5058.5,13259.1,0.0,0.0
675,-3.16791,-49.75057,Baião,PA,3768,2008,1535.9,18.4,1434.1,85.1,1.6,475.4,235.9,0.4076167728237792
676,-2.48368,-50.18049,Bagre,PA,4403,2008,181.9,3.8,3329.3,572.7,0.8,61.5,256.8,0.04131274131274131
677,-2.69129,-44.65781,Bacurituba,MA,684,2008,16.2,0.0,31.7,0.7,0.0,358.2,277.2,0.023684210526315787
678,-1.68907,-45.22394,Bacuri,MA,795,2008,502.1,0.9,147.2,51.0,0.2,5.5,89.0,0.6315723270440252
679,-2.93046,-44.365590000000005,Bacabeira,MA,625,2008,85.1,3.5,215.7,1.3,0.3,226.1,96.5,0.13616
680,-4.11944,-44.73579,Bacabal,MA,1705,2008,1198.0,0.0,0.0,0.0,145.4,360.8,2.5,0.7026392961876833
681,-7.16202,-47.91015,Babaçulândia,TO,1796,2008,3.5,0.0,0.0,0.0,0.0,1779.2,13.5,0.0019487750556792874
682,-5.68039,-47.7632,Axixá do Tocantins,TO,150,2008,139.4,0.2,10.6,0.0,0.0,0.0,0.0,0.9293333333333333
683,-2.8175,-44.088190000000004,Axixá,MA,205,2008,28.8,3.2,118.4,0.4,0.2,0.0,57.2,0.1404878048780488
684,-3.7627800000000002,-56.01333,Aveiro,PA,17089,2008,1094.0,33.5,15003.3,248.3,6.0,18.4,719.0,0.0640177892211364
685,-3.83163,-59.45109,Autazes,AM,7636,2008,1203.5,40.9,4936.6,12.7,3.0,464.3,1015.9,0.15760869565217392
686,-12.62674,-46.48403,Aurora do Tocantins,TO,756,2008,0.0,0.0,0.0,0.0,756.8,754.5,0.0,0.0
687,-2.26004,-47.7069,Aurora do Pará,PA,1824,2008,1516.1,17.2,288.1,0.2,2.3,0.0,17.3,0.8311951754385964
688,-0.9960899999999999,-46.42827,Augusto Corrêa,PA,1100,2008,728.1,0.3,240.3,50.5,0.1,4.7,76.3,0.6619090909090909
689,-5.52161,-47.92406,Augustinópolis,TO,397,2008,381.2,0.3,15.2,0.0,0.1,0.5,0.0,0.9602015113350125
690,-5.67098,-71.72825,Atalaia do Norte,AM,80005,2008,233.4,1.2,77330.4,1700.6,328.2,16.5,395.9,0.002917317667645772
691,-10.71979,-70.01543000000001,Assis Brasil,AC,5180,2008,247.6,3.5,4888.6,1.2,42.1,0.5,0.0,0.047799227799227795
692,-12.819980000000001,-46.91441,Arraias,TO,5827,2008,0.0,0.0,0.0,0.0,5827.8,5814.1,0.0,0.0
693,-9.978660000000001,-63.05645,Ariquemes,RO,4481,2008,3161.9,8.4,1229.3,0.0,0.0,89.6,0.2,0.7056237446998438
694,-10.10335,-59.718340000000005,Aripuanã,MT,25182,2008,3767.6,81.3,20862.8,209.8,4.8,283.2,53.8,0.14961480422524026
695,-14.5036,-56.87307,Arenápolis,MT,414,2008,367.5,0.3,46.5,0.0,0.0,0.0,0.0,0.8876811594202898
696,-3.5501400000000003,-44.72648,Arari,MA,1115,2008,405.1,10.0,45.4,0.1,0.4,585.3,78.7,0.36331838565022423
697,-15.264829999999998,-58.407830000000004,Araputanga,MT,1608,2008,1222.9,0.2,349.2,0.0,0.7,35.2,0.0,0.7605099502487562
698,-7.729360000000001,-49.0087,Arapoema,TO,1558,2008,1463.6,0.0,70.4,0.0,0.0,0.0,24.0,0.9394094993581514
699,-5.03734,-45.894529999999996,Arame,MA,3075,2008,1742.1,32.2,990.0,4.8,1.5,336.5,0.1,0.5665365853658536
700,-5.641780000000001,-48.00928,Araguatins,TO,2642,2008,1802.2,15.1,233.5,0.0,0.6,539.0,66.7,0.6821347464042392
701,-6.73568,-48.5563,Araguanã,TO,838,2008,742.3,0.6,67.9,0.0,0.0,12.5,15.3,0.885799522673031
702,-3.06101,-45.77225,Araguanã,MA,811,2008,756.8,7.0,53.5,0.5,0.2,0.0,0.0,0.9331689272503082
703,-16.70281,-53.140519999999995,Araguainha,MT,688,2008,0.0,0.0,0.0,0.0,686.5,687.3,0.0,0.0
704,-7.25203,-48.282,Araguaína,TO,4019,2008,2675.3,2.5,421.4,0.0,0.8,897.6,23.9,0.6656631002737
705,-15.074639999999999,-51.79283,Araguaiana,MT,6422,2008,830.0,3.6,528.0,0.0,15.5,5034.8,13.7,0.12924322640921831
706,-12.83987,-49.7752,Araguaçu,TO,5183,2008,0.0,0.0,0.0,0.0,2325.7,5099.8,2.7,0.0
707,-8.909410000000001,-49.57375,Araguacema,TO,2786,2008,48.1,1.1,421.8,0.0,0.0,2232.0,84.1,0.01726489590811199
708,-6.98883,-48.52513,Aragominas,TO,1180,2008,997.5,10.7,153.8,0.0,0.0,18.0,10.7,0.8453389830508474
709,-7.59202,-59.44152,Apuí,AM,54490,2008,1621.0,70.7,51759.8,264.8,15.2,625.0,204.2,0.029748577720682692
710,-1.43741,-45.09702,Apicum-Açu,MA,349,2008,167.0,0.0,0.0,119.5,0.3,3.0,59.2,0.4785100286532951
711,-8.5825,-58.01843,Apiacás,MT,20401,2008,2034.4,45.8,17043.5,3.2,3.8,1052.9,263.2,0.09972060193127788
712,-9.97682,-48.0215,Aparecida do Rio Negro,TO,1166,2008,0.0,0.0,0.0,0.0,0.0,1166.8,0.0,0.0
713,-4.15477,-62.08065,Anori,AM,5852,2008,78.6,0.9,4143.9,553.6,0.6,640.6,434.7,0.013431305536568693
714,-6.42281,-47.897009999999995,Angico,TO,453,2008,199.2,2.6,30.5,0.0,0.7,222.6,0.0,0.4397350993377483
715,-3.94708,-51.35268,Anapu,PA,11910,2008,1916.2,74.3,8092.5,1715.0,6.0,6.8,173.5,0.16089000839630563
716,-1.34293,-48.39038,Ananindeua,PA,185,2008,87.1,0.0,79.3,0.0,0.2,0.0,18.4,0.4708108108108108
717,-6.19412,-48.20527,Ananás,TO,1587,2008,1154.9,4.7,194.0,0.0,1.9,192.8,43.4,0.7277252678008822
718,-3.4733199999999997,-61.6709,Anamã,AM,2473,2008,192.9,0.1,1966.4,59.7,0.4,34.6,219.0,0.07800242620299232
719,-3.25025,-44.59701,Anajatuba,MA,1024,2008,311.9,2.0,46.2,0.0,0.2,552.8,112.9,0.30458984375
720,-0.79152,-49.997859999999996,Anajás,PA,6940,2008,163.2,0.0,4838.1,1591.6,1.2,209.1,136.8,0.02351585014409222
721,-3.42104,-68.34925,Amaturá,AM,4903,2008,110.6,0.1,3490.3,865.0,1.0,222.5,213.6,0.02255761778502957
722,-5.380730000000001,-46.60406,Amarante do Maranhão,MA,7733,2008,2191.8,61.1,3775.5,81.1,6.1,1678.5,0.0,0.28343463080305187
723,-1.6564900000000002,-45.937490000000004,Amapá do Maranhão,MA,507,2008,372.1,1.3,104.4,30.3,0.2,0.0,0.0,0.7339250493096647
724,1.6833900000000002,-50.24716,Amapá,AP,9186,2008,104.2,1.9,1685.1,1508.8,1.5,4911.1,975.3,0.01134334857391683
725,3.72519,-61.80976,Amajari,RR,28786,2008,295.5,34.8,17588.8,5039.2,486.6,5292.0,83.9,0.010265406794969777
726,-11.333960000000001,-62.46869,Alvorada D'Oeste,RO,3060,2008,1368.0,6.9,872.3,0.0,0.0,819.7,0.0,0.4470588235294118
727,-12.408439999999999,-49.11486,Alvorada,TO,1216,2008,0.0,0.0,0.0,0.0,1216.4,1216.1,0.0,0.0
728,-3.67425,-65.34586,Alvarães,AM,6027,2008,310.9,10.5,5162.5,386.5,1.5,38.0,127.6,0.0515845362535258
729,-17.77315,-53.34775,Alto Taquari,MT,1391,2008,0.0,0.0,0.0,0.0,492.5,1383.4,0.0,0.0
730,-9.50943,-46.19474,Alto Parnaíba,MA,11229,2008,0.0,0.0,156.3,0.0,0.0,11072.7,0.0,0.0
731,-9.69738,-63.3777,Alto Paraíso,RO,2683,2008,1652.4,14.7,1012.1,0.0,0.1,0.8,17.6,0.6158777487886694
732,-14.76893,-56.62505,Alto Paraguai,MT,2055,2008,423.2,0.7,123.8,0.0,0.0,1508.0,0.0,0.2059367396593674
733,-16.85399,-53.66434,Alto Garças,MT,3658,2008,0.0,0.0,0.0,0.0,1763.8,3658.0,0.0,0.0
734,-11.78783,-51.69334,Alto Boa Vista,MT,2241,2008,1128.9,17.9,538.3,0.0,0.0,573.8,0.0,0.503748326639893
735,-17.42312,-53.4565,Alto Araguaia,MT,5541,2008,0.0,0.0,0.0,0.0,4285.0,5339.3,0.0,0.0
736,-12.573360000000001,-61.76339,Alto Alegre dos Parecis,RO,3994,2008,1281.1,22.6,1766.3,9.4,5.8,917.6,13.8,0.32075613420130195
737,-3.96927,-46.1101,Alto Alegre do Pindaré,MA,1951,2008,1861.0,4.6,35.9,0.0,0.6,53.5,0.0,0.9538698103536648
738,-4.21028,-44.38837,Alto Alegre do Maranhão,MA,388,2008,179.1,0.0,0.0,0.0,239.8,0.0,0.0,0.46159793814432987
739,3.10387,-62.61311,Alto Alegre,RR,25869,2008,731.8,36.8,17145.2,5165.6,122.3,2610.3,93.8,0.028288685299006532
740,-4.14425,-45.4663,Altamira do Maranhão,MA,542,2008,542.5,0.0,0.0,0.0,0.0,0.0,0.0,1.0009225092250922
741,-6.3166400000000005,-54.2628,Altamira,PA,159540,2008,6138.8,341.0,144968.9,2977.7,25.7,3760.6,1668.3,0.03847812460824872
742,-12.47301,-62.13723,Alta Floresta D'Oeste,RO,7137,2008,2237.6,26.9,2993.7,166.1,9.4,1708.0,22.2,0.31352108729157907
743,-10.04165,-56.40435,Alta Floresta,MT,8986,2008,4903.4,15.9,3786.1,0.0,1.7,258.7,36.1,0.5456710438459826
744,0.40528000000000003,-54.006569999999996,Almeirim,PA,72964,2008,1679.0,59.9,56406.2,11071.2,61.5,2715.5,1030.6,0.023011348062058002
745,-11.473239999999999,-47.30304,Almas,TO,4041,2008,0.0,0.0,0.0,0.0,4048.5,4041.0,0.0,0.0
746,-11.35975,-48.940979999999996,Aliança do Tocantins,TO,1585,2008,0.0,0.0,0.0,0.0,1527.7,1585.9,0.0,0.0
747,-0.30798000000000003,-55.15106,Alenquer,PA,22286,2008,1315.6,34.7,17172.3,725.2,6.9,2476.4,589.6,0.05903257650542942
748,-2.20396,-44.47826,Alcântara,MA,1506,2008,904.8,1.8,126.2,52.8,0.2,72.0,350.0,0.600796812749004
749,-6.5014,-47.50278,Aguiarnópolis,TO,236,2008,107.0,0.1,22.5,0.0,0.1,102.1,4.3,0.4533898305084746
750,-14.087710000000001,-52.43685,Água Boa,MT,7486,2008,37.2,0.8,122.5,0.0,3.9,7322.4,0.0,0.004969275981832755
751,-6.7617,-50.328,Água Azul do Norte,PA,7125,2008,4581.7,23.1,2403.5,11.9,0.0,127.9,0.0,0.6430456140350876
752,-0.2385,-50.740829999999995,Afuá,PA,8382,2008,26.9,0.1,3724.4,1603.1,0.3,286.7,2740.6,0.003209257933667382
753,-9.954239999999999,-66.87906,Acrelândia,AC,1880,2008,1061.3,24.4,815.8,0.0,2.9,0.0,0.0,0.5645212765957447
754,-15.194220000000001,-56.31716,Acorizal,MT,841,2008,0.0,0.0,0.0,0.0,0.9,840.8,0.0,0.0
755,-2.03379,-48.31904,Acará,PA,4361,2008,2263.7,47.9,1971.3,6.7,5.5,43.3,70.5,0.5190781930749827
756,-4.7020800000000005,-47.22036,Açailândia,MA,5846,2008,5240.9,56.5,603.9,0.0,1.2,0.0,0.0,0.8964933287718098
757,-9.46606,-49.339009999999995,Abreulândia,TO,1900,2008,7.4,1.9,47.9,0.0,0.4,1844.3,0.0,0.0038947368421052633
758,-4.96265,-48.394059999999996,Abel Figueiredo,PA,616,2008,561.5,2.0,54.3,0.0,0.2,0.0,0.0,0.911525974025974
759,-1.7386599999999999,-48.85524,Abaetetuba,PA,1617,2008,683.3,1.2,505.6,0.5,0.4,13.6,413.6,0.42257266542980826
760,-3.25303,-45.97435,Zé Doca,MA,2438,2009,1986.1,32.3,380.9,42.5,28.5,0.0,0.0,0.8146431501230517
761,-6.84864,-49.25551,Xinguara,PA,3793,2009,3367.6,4.4,407.8,0.0,0.0,0.0,17.6,0.8878460321645135
762,-10.61178,-68.46285,Xapuri,AC,5511,2009,1264.7,7.4,4245.2,0.7,0.4,0.0,0.0,0.22948648158229
763,-6.598660000000001,-48.48198,Xambioá,TO,1191,2009,980.8,3.3,169.0,0.0,0.1,11.0,30.1,0.8235096557514693
764,-6.88444,-47.99094,Wanderlândia,TO,1382,2009,314.7,0.1,146.5,0.0,0.0,920.8,0.0,0.22771345875542692
765,-4.1550199999999995,-45.29588,Vitorino Freire,MA,1209,2009,1166.3,0.0,0.0,0.0,0.0,43.3,0.0,0.9646815550041357
766,-3.19117,-51.871140000000004,Vitória do Xingu,PA,3136,2009,1833.2,1.6,202.9,947.2,3.2,0.1,149.4,0.5845663265306122
767,-3.54938,-44.93269,Vitória do Mearim,MA,736,2009,238.2,1.8,22.6,0.0,0.4,464.9,9.9,0.32364130434782606
768,-1.0161200000000001,-52.05024,Vitória do Jari,AP,2481,2009,196.1,1.7,1360.1,414.7,0.7,379.8,129.6,0.07904070939137445
769,-1.09331,-46.26696,Viseu,PA,4971,2009,3437.1,36.4,923.9,472.8,4.5,45.4,87.3,0.6914302957151478
770,-12.123510000000001,-60.112109999999994,Vilhena,RO,11584,2009,1721.4,6.1,8060.9,110.5,3.9,1685.8,1.5,0.14860151933701657
771,-10.01731,-51.43727,Vila Rica,MT,7443,2009,4589.3,7.6,2657.0,0.0,0.0,186.8,9.9,0.6165927717318286
772,-5.03923,-48.09734,Vila Nova dos Martírios,MA,1196,2009,964.7,2.0,85.2,3.7,1.4,131.8,9.2,0.8066053511705686
773,-15.13556,-60.01729,Vila Bela da Santíssima Trindade,MT,13521,2009,4540.8,24.6,2276.5,0.0,40.3,6590.5,72.9,0.3358331484357666
774,-0.9177700000000001,-48.118109999999994,Vigia,PA,536,2009,216.0,0.1,101.1,39.8,1.3,16.4,161.4,0.40298507462686567
775,-3.1301200000000002,-45.18793,Viana,MA,1176,2009,502.9,0.9,95.4,0.0,0.3,382.3,195.1,0.42763605442176866
776,-12.48409,-55.323840000000004,Vera,MT,2952,2009,1924.6,3.3,1008.1,0.0,1.4,17.8,0.1,0.6519647696476965
777,-15.55785,-56.34461999999999,Várzea Grande,MT,939,2009,0.0,0.0,0.0,0.0,1.4,937.7,0.0,0.0
778,-10.36243,-62.072269999999996,Vale do Paraíso,RO,974,2009,868.2,0.6,101.6,0.0,0.0,3.5,0.7,0.8913757700205339
779,-9.69033,-61.7712,Vale do Anari,RO,3166,2009,1191.6,10.7,1944.1,0.0,0.0,11.3,19.0,0.37637397346809853
780,-15.02325,-58.956559999999996,Vale de São Domingos,MT,1913,2009,602.2,0.4,499.5,0.0,0.2,811.1,0.0,0.3147935180345008
781,-11.11448,-62.45596,Urupá,RO,841,2009,687.4,1.7,55.9,0.0,0.0,97.7,0.0,0.8173602853745541
782,-2.8349,-57.83095,Urucurituba,AM,2915,2009,93.6,0.0,34.0,96.9,0.5,1689.6,1000.4,0.032109777015437393
783,-1.24938,-58.78714,Urucará,AM,28012,2009,333.8,1.6,26129.7,476.8,2.3,423.0,646.4,0.011916321576467229
784,-3.5763300000000005,-53.741009999999996,Uruará,PA,10794,2009,2976.0,99.7,7339.3,428.5,50.0,0.0,0.2,0.2757087270705948
785,-11.535960000000001,-54.3507,União do Sul,MT,4583,2009,1019.9,3.1,3538.3,0.0,2.1,22.7,0.0,0.22253982107789658
786,-3.8018699999999996,-47.54701,Ulianópolis,PA,5122,2009,3395.7,44.2,1537.1,186.1,3.1,0.0,0.0,0.6629636860601327
787,4.71636,-60.34048000000001,Uiramutã,RR,8117,2009,33.8,1.6,920.0,1215.7,55.3,5884.1,8.1,0.004164100036959467
788,-3.20648,-65.43058,Uarini,AM,10448,2009,239.5,0.5,9464.7,209.4,2.2,100.4,431.8,0.022923047473200613
789,-2.11952,-45.43842,Turilândia,MA,1529,2009,1178.5,5.4,113.7,36.7,4.0,135.6,60.5,0.7707652060170046
790,-1.4712399999999999,-45.40039,Turiaçu,MA,2603,2009,1926.4,17.5,385.9,168.2,7.8,48.0,66.7,0.7400691509796389
791,-8.355269999999999,-48.19828,Tupiratins,TO,900,2009,2.2,0.0,6.8,0.0,0.0,883.1,7.9,0.002444444444444445
792,-8.940539999999999,-48.28255,Tupirama,TO,715,2009,0.0,0.0,0.0,0.0,0.0,709.8,5.7,0.0
793,-5.60091,-44.826879999999996,Tuntum,MA,3619,2009,1187.3,7.8,454.0,0.0,0.2,1933.7,43.8,0.3280740536059685
794,-3.7701300000000004,-45.57549,Tufilândia,MA,274,2009,249.0,0.0,0.0,0.0,0.0,25.0,0.0,0.9087591240875912
795,-3.79728,-49.8067,Tucuruí,PA,2095,2009,716.5,2.1,363.5,530.8,1.4,4.7,478.1,0.34200477326968975
796,-6.813339999999999,-51.41284,Tucumã,PA,2513,2009,2273.1,2.6,231.8,0.1,0.4,0.0,7.6,0.9045364106645444
797,-4.53616,-44.669990000000006,Trizidela do Vale,MA,225,2009,153.7,0.9,70.9,0.4,0.0,0.0,0.0,0.6831111111111111
798,-5.1062,-55.93385,Trairão,PA,11997,2009,1054.8,37.1,10837.1,1.8,0.2,1.1,102.0,0.08792198049512377
799,-0.92904,-46.93052,Tracuateua,PA,858,2009,467.7,4.2,154.4,25.8,0.5,188.8,20.8,0.5451048951048951
800,-16.29768,-52.9183,Torixoréu,MT,2397,2009,0.0,0.0,0.0,0.0,2.4,2394.2,1.1,0.0
801,-2.57583,-67.47268000000001,Tonantins,AM,6619,2009,81.5,0.4,6092.3,60.0,2.1,67.4,315.7,0.01231303822329657
802,-2.6602799999999998,-48.258179999999996,Tomé-Açu,PA,5169,2009,2902.0,14.0,2258.5,5.8,2.2,0.1,0.4,0.5614238730895724
803,-6.23192,-47.554190000000006,Tocantinópolis,TO,1085,2009,301.0,0.5,135.1,0.0,0.0,624.0,24.9,0.27741935483870966
804,-9.61778,-48.15994,Tocantínia,TO,2619,2009,0.0,0.0,0.0,0.0,0.3,2600.5,18.8,0.0
805,-10.0886,-62.27984,Theobroma,RO,2217,2009,1740.8,6.5,475.8,0.0,0.0,0.0,0.4,0.7852052322958953
806,-15.906270000000001,-53.44494,Tesouro,MT,3944,2009,0.0,0.0,0.0,0.0,5.1,3938.9,1.1,0.0
807,-1.90481,-56.474180000000004,Terra Santa,PA,1900,2009,336.7,4.1,763.4,20.3,2.1,388.1,389.4,0.17721052631578946
808,-10.493269999999999,-54.989180000000005,Terra Nova do Norte,MT,2551,2009,2115.1,11.9,431.3,0.0,0.0,4.6,0.0,0.829125833006664
809,-0.9934700000000001,-47.8485,Terra Alta,PA,209,2009,170.2,0.1,17.9,20.2,0.7,0.0,0.0,0.8143540669856458
810,-10.9319,-62.2591,Teixeirópolis,RO,464,2009,441.5,0.2,22.4,0.0,0.1,0.0,0.0,0.9515086206896551
811,-4.41301,-65.57764,Tefé,AM,24186,2009,625.1,4.5,22348.9,314.5,3.9,168.9,724.7,0.025845530472173986
812,-8.308010000000001,-45.887,Tasso Fragoso,MA,4426,2009,0.0,0.0,27.1,0.0,0.0,4398.9,0.0,0.0
813,1.31335,-50.929429999999996,Tartarugalzinho,AP,6718,2009,298.3,5.6,2239.8,748.5,16.0,3226.1,189.3,0.044403096159571304
814,-8.26015,-71.43408000000001,Tarauacá,AC,21156,2009,1410.3,16.0,18822.6,906.1,2.2,1.2,13.6,0.0666619398752127
815,-12.58197,-56.49045,Tapurah,MT,4491,2009,1939.7,7.4,1474.0,386.6,0.0,680.6,10.1,0.4319082609663772
816,-5.93398,-65.97188,Tapauá,AM,90962,2009,305.9,1.2,85794.5,1197.1,2.0,2161.1,1501.4,0.0033629427673094255
817,-14.4327,-58.38021,Tangará da Serra,MT,11333,2009,2173.2,1.6,646.1,0.0,0.0,8512.8,0.9,0.19175858113473923
818,-12.6709,-49.06021,Talismã,TO,2162,2009,0.0,0.0,0.0,0.0,5.1,2158.4,0.0,0.0
819,-12.15468,-46.97995,Taipas do Tocantins,TO,1123,2009,0.0,0.0,0.0,0.0,0.0,1123.5,0.0,0.0
820,-2.9033599999999997,-48.78385,Tailândia,PA,4451,2009,2115.9,16.6,2332.1,0.3,2.7,0.0,0.0,0.4753763199281061
821,-12.34835,-46.59775,Taguatinga,TO,2458,2009,0.0,0.0,2.0,0.0,3.7,2452.3,0.0,0.0
822,-4.02878,-69.69785999999999,Tabatinga,AM,3343,2009,155.6,1.1,2554.2,548.4,31.5,1.3,52.0,0.04654501944361352
823,-11.067169999999999,-56.77741999999999,Tabaporã,MT,8231,2009,2496.5,9.1,3405.4,82.1,0.7,2240.1,6.2,0.3033045802454137
824,-6.5022199999999994,-44.32649,Sucupira do Norte,MA,1087,2009,0.0,0.0,0.0,0.0,0.0,1087.8,0.0,0.0
825,-12.08831,-48.85414,Sucupira,TO,1030,2009,0.0,0.0,0.0,0.0,0.0,1030.8,0.0,0.0
826,-0.53599,-48.677209999999995,Soure,PA,3528,2009,33.9,0.2,217.7,41.7,0.9,2502.9,730.9,0.009608843537414966
827,-12.69331,-55.777409999999996,Sorriso,MT,9349,2009,3970.8,1.4,1228.0,30.4,0.7,4119.1,0.0,0.4247299176382501
828,-5.64773,-47.65314,Sítio Novo do Tocantins,TO,325,2009,295.6,1.4,29.4,0.0,0.0,0.0,0.0,0.9095384615384616
829,-6.274369999999999,-46.55403,Sítio Novo,MA,3141,2009,58.5,0.7,14.8,0.0,4.6,3063.1,0.0,0.01862464183381089
830,-11.74201,-55.40265,Sinop,MT,3935,2009,2444.7,7.0,1320.4,15.2,0.0,136.3,18.4,0.6212706480304955
831,-2.8509900000000004,-58.496140000000004,Silves,AM,3758,2009,426.7,0.3,2403.2,199.6,1.1,128.7,598.7,0.11354443853113358
832,-11.11331,-48.22351,Silvanópolis,TO,1268,2009,0.0,0.0,0.0,0.0,0.0,1268.6,0.0,0.0
833,-1.88674,-45.04397,Serrano do Maranhão,MA,1221,2009,1101.4,0.5,63.5,39.8,0.3,2.3,13.7,0.9020475020475022
834,-12.06992,-51.31397,Serra Nova Dourada,MT,1491,2009,299.4,17.6,228.9,0.0,0.0,962.7,0.0,0.20080482897384305
835,1.63998,-52.27148,Serra do Navio,AP,7762,2009,71.2,0.6,7320.1,361.3,0.3,0.0,9.1,0.009172893584127803
836,-11.88579,-63.10785,Seringueiras,RO,3821,2009,1229.0,4.4,1881.6,15.4,0.0,695.0,0.0,0.32164354880921225
837,-5.31274,-47.07804,Senador La Rocque,MA,1247,2009,1146.9,5.2,100.1,0.0,0.0,0.0,0.0,0.9197273456295109
838,-3.5582,-51.73873,Senador José Porfírio,PA,14389,2009,654.9,3.6,9375.9,3880.7,5.3,84.9,387.3,0.045513934255333933
839,-9.97788,-67.32124,Senador Guiomard,AC,2384,2009,1676.8,7.7,707.2,0.0,0.0,0.0,0.0,0.7033557046979866
840,-9.771469999999999,-69.33204,Sena Madureira,AC,24599,2009,1604.9,21.2,22408.4,563.5,19.2,2.4,0.6,0.0652424895320948
841,-3.9388900000000002,-45.26408,Satubinha,MA,447,2009,356.2,0.0,0.0,0.0,0.0,86.7,4.4,0.7968680089485458
842,-6.83358,-49.56823,Sapucaia,PA,1300,2009,1157.7,0.0,142.3,0.0,0.0,0.0,0.0,0.8905384615384616
843,-12.96091,-58.60201,Sapezal,MT,13636,2009,184.5,0.2,2849.3,0.0,5.8,10595.9,0.5,0.01353036080962159
844,-2.87304,-44.93268,São Vicente Ferrer,MA,393,2009,296.1,0.0,0.0,0.0,0.0,97.8,0.0,0.7534351145038168
845,-11.77169,-48.22797,São Valério da Natividade,TO,2532,2009,0.0,0.0,0.0,0.0,0.0,2532.2,0.0,0.0
846,-1.89625,-58.81001,São Sebastião do Uatumã,AM,10776,2009,197.9,2.2,9807.7,77.0,1.9,65.7,625.8,0.018364884929472903
847,-5.2432099999999995,-48.32049,São Sebastião do Tocantins,TO,287,2009,135.6,0.0,0.0,0.0,0.0,132.9,18.6,0.4724738675958188
848,-1.4310200000000002,-49.6042,São Sebastião da Boa Vista,PA,1636,2009,121.3,0.4,1223.6,0.1,0.0,175.1,115.9,0.0741442542787286
849,-12.54073,-48.35452,São Salvador do Tocantins,TO,1429,2009,0.0,0.0,0.0,0.0,0.0,1429.0,0.0,0.0
850,-5.02229,-45.0238,São Roberto,MA,229,2009,229.7,0.0,0.0,0.0,0.0,0.0,0.0,1.003056768558952
851,-5.10345,-45.06812,São Raimundo do Doca Bezerra,MA,284,2009,279.9,0.0,3.8,0.0,0.3,0.0,0.0,0.9855633802816901
852,-7.052010000000001,-45.66837,São Raimundo das Mangabeiras,MA,3555,2009,0.0,0.0,0.0,0.0,0.0,3555.6,0.0,0.0
853,-6.850280000000001,-46.80829,São Pedro dos Crentes,MA,987,2009,0.0,0.0,0.0,0.0,0.0,988.0,0.0,0.0
854,-15.96819,-54.74813,São Pedro da Cipa,MT,343,2009,305.7,0.0,6.3,0.0,0.0,31.0,0.0,0.8912536443148688
855,-5.1386400000000005,-48.3445,São Pedro da Água Branca,MA,725,2009,453.8,0.8,40.0,0.1,0.9,208.0,22.2,0.6259310344827587
856,-4.73714,-69.52391999999999,São Paulo de Olivença,AM,20467,2009,175.2,0.7,18635.8,980.3,1.6,86.3,587.8,0.008560121170664972
857,-5.54593,-47.56455,São Miguel do Tocantins,TO,400,2009,336.6,4.6,46.4,0.0,0.0,4.2,12.8,0.8415
858,-11.6207,-62.70568000000001,São Miguel do Guaporé,RO,8102,2009,2128.5,4.6,4169.0,6.2,0.1,1798.2,0.0,0.26271291039249567
859,-1.55275,-47.62771,São Miguel do Guamá,PA,1117,2009,881.6,0.7,108.9,76.0,3.1,15.2,32.2,0.7892569382273948
860,-3.98602,-44.504220000000004,São Mateus do Maranhão,MA,793,2009,461.0,4.5,215.1,0.7,0.3,106.9,9.0,0.5813366960907944
861,0.84851,-60.14343,São Luiz,RR,1537,2009,545.9,5.8,957.3,31.0,0.7,0.0,2.1,0.35517241379310344
862,-4.3794699999999995,-44.64014,São Luís Gonzaga do Maranhão,MA,981,2009,653.3,9.9,325.8,0.2,0.0,1.7,0.0,0.665953109072375
863,-2.62711,-44.30617,São Luís,MA,839,2009,367.9,0.0,103.3,75.5,1.2,0.0,291.1,0.43849821215733015
864,-15.532160000000001,-58.336969999999994,São José dos Quatro Marcos,MT,1284,2009,1182.3,0.9,65.6,0.0,0.0,36.1,0.0,0.9207943925233645
865,-5.01499,-44.55154,São José dos Basílios,MA,366,2009,270.9,1.8,82.3,0.1,0.0,0.0,12.7,0.7401639344262294
866,-10.68304,-52.63992,São José do Xingu,MT,7465,2009,4286.7,5.9,2784.5,25.7,4.9,306.2,57.0,0.5742397856664434
867,-13.436010000000001,-56.79362,São José do Rio Claro,MT,4563,2009,1739.6,8.6,1717.5,0.2,0.0,1103.6,2.1,0.38124041200964276
868,-16.45731,-54.27559,São José do Povo,MT,443,2009,27.4,0.0,0.0,0.0,0.0,416.1,0.0,0.0618510158013544
869,-2.5952,-44.09279,São José de Ribamar,MA,390,2009,99.4,0.0,47.6,35.7,35.1,0.0,172.2,0.2548717948717949
870,-6.4398800000000005,-46.90735,São João do Paraíso,MA,2070,2009,253.4,0.9,21.1,0.0,0.7,1794.8,0.0,0.12241545893719807
871,-3.5971,-46.537440000000004,São João do Carú,MA,620,2009,408.7,14.7,178.7,19.5,13.1,0.0,0.0,0.6591935483870968
872,-5.4417,-48.67711,São João do Araguaia,PA,1288,2009,901.4,15.5,196.8,0.0,0.0,73.7,116.1,0.6998447204968944
873,-0.77509,-47.26758,São João de Pirabas,PA,703,2009,198.1,2.1,245.2,163.9,1.5,12.9,81.4,0.2817923186344239
874,-0.8685,-47.96322,São João da Ponta,PA,197,2009,103.7,0.3,46.2,33.7,0.4,1.7,11.3,0.5263959390862945
875,0.77051,-59.92018,São João da Baliza,RR,4305,2009,504.2,8.6,3689.0,105.2,0.8,0.4,5.4,0.11711962833914054
876,-3.01337,-44.77539,São João Batista,MA,700,2009,148.6,0.0,57.3,0.0,0.1,358.8,135.2,0.21228571428571427
877,-6.16889,-48.75597,São Geraldo do Araguaia,PA,3181,2009,2488.4,3.6,349.3,0.0,0.0,314.1,29.2,0.7822697265011003
878,0.35952,-68.17017,São Gabriel da Cachoeira,AM,112476,2009,1185.2,4.6,94198.5,14730.8,389.5,489.7,1482.3,0.010537359081048402
879,-1.20761,-47.74858,São Francisco do Pará,PA,480,2009,415.6,0.1,27.2,34.5,1.3,1.3,0.1,0.8658333333333333
880,-12.3802,-62.946490000000004,São Francisco do Guaporé,RO,11095,2009,2436.1,11.9,5360.0,131.2,0.0,3144.7,23.0,0.21956737269040108
881,-5.1698900000000005,-47.32265,São Francisco do Brejão,MA,751,2009,714.1,1.6,36.9,0.0,0.0,0.0,0.0,0.9508655126498003
882,-7.461139999999999,-52.46225,São Félix do Xingu,PA,84253,2009,16650.6,444.4,60981.6,1885.2,8.6,3788.0,939.0,0.1976261972867435
883,-10.043610000000001,-46.75224,São Félix do Tocantins,TO,1923,2009,0.0,0.0,0.0,0.0,0.0,1923.4,0.0,0.0
884,-11.479560000000001,-52.50108,São Félix do Araguaia,MT,16851,2009,4404.7,17.6,6203.9,0.1,0.7,6180.1,61.5,0.2613910153700077
885,-7.10735,-44.885709999999996,São Félix de Balsas,MA,2057,2009,0.0,0.0,12.5,0.0,0.0,2044.5,0.0,0.0
886,-11.91634,-61.45463,São Felipe D'Oeste,RO,547,2009,485.1,0.0,61.7,0.2,0.0,0.0,0.0,0.886837294332724
887,-5.66656,-44.31635,São Domingos do Maranhão,MA,1168,2009,770.5,10.2,305.2,0.0,0.0,92.3,0.0,0.6596746575342466
888,-1.9272900000000002,-47.75973,São Domingos do Capim,PA,1686,2009,1330.0,1.6,223.6,78.4,2.9,15.2,35.9,0.7888493475682088
889,-6.84762,-44.59859,São Domingos do Azeitão,MA,974,2009,0.0,0.0,0.0,0.0,0.0,974.2,0.0,0.0
890,-5.68166,-48.73065,São Domingos do Araguaia,PA,1397,2009,1276.6,10.0,120.4,0.0,0.0,0.0,0.0,0.913815318539728
891,-0.82301,-48.03573,São Caetano de Odivelas,PA,752,2009,230.9,0.3,120.2,77.4,1.2,8.8,313.5,0.3070478723404255
892,-5.94912,-47.79323,São Bento do Tocantins,TO,1112,2009,349.1,0.7,76.9,0.0,1.3,684.7,0.0,0.3139388489208633
893,-2.78496,-44.93574,São Bento,MA,465,2009,362.8,0.0,1.9,0.0,0.0,99.8,0.5,0.7802150537634409
894,-4.8128,-44.4809,Santo Antônio dos Lopes,MA,781,2009,289.5,11.0,490.2,1.3,0.0,0.0,0.0,0.3706786171574904
895,-1.09607,-48.14127,Santo Antônio do Tauá,PA,540,2009,323.7,0.1,71.9,39.7,1.0,6.8,96.9,0.5994444444444444
896,-16.48613,-55.26485,Santo Antônio do Leverger,MT,12262,2009,1037.1,3.6,1103.4,0.0,0.3,10099.5,21.7,0.0845783722068178
897,-14.820129999999999,-53.691959999999995,Santo Antônio do Leste,MT,3597,2009,2.0,0.0,64.8,0.0,0.0,3530.2,0.0,0.0005560189046427579
898,-3.0807900000000004,-69.06723000000001,Santo Antônio do Içá,AM,12737,2009,133.5,1.2,11821.5,164.6,75.7,90.4,451.3,0.010481275025516212
899,-14.44224,-57.21069,Santo Afonso,MT,1172,2009,952.3,8.0,214.7,0.6,0.0,4.4,0.0,0.8125426621160409
900,-0.90151,-47.345859999999995,Santarém Novo,PA,230,2009,147.7,0.2,29.3,41.8,0.5,1.9,8.8,0.6421739130434783
901,-2.81346,-55.58935,Santarém,PA,22890,2009,4554.1,49.0,12022.0,1744.4,18.2,663.5,3887.8,0.198955875928353
902,-9.276660000000001,-50.54546,Santana do Araguaia,PA,11609,2009,7027.1,27.2,3685.5,22.8,0.3,808.4,64.9,0.605314841932983
903,0.17769000000000001,-51.42352,Santana,AP,1578,2009,74.3,0.1,390.9,128.0,0.5,940.0,44.3,0.04708491761723701
904,-6.4848300000000005,-47.76416,Santa Terezinha do Tocantins,TO,271,2009,73.3,0.0,24.2,0.0,0.5,173.0,0.0,0.27047970479704797
905,-10.2875,-50.98703,Santa Terezinha,MT,6459,2009,2542.7,7.9,2625.2,0.0,0.2,1243.7,47.2,0.39366775042576246
906,-10.29171,-47.74599,Santa Tereza do Tocantins,TO,543,2009,0.0,0.0,0.0,0.0,0.0,543.7,0.0,0.0
907,-11.41267,-48.13864,Santa Rosa do Tocantins,TO,1804,2009,0.0,0.0,0.0,0.0,0.0,1804.1,0.0,0.0
908,-9.51622,-70.29089,Santa Rosa do Purus,AC,6350,2009,72.0,1.8,6082.0,127.1,33.9,0.1,34.9,0.011338582677165355
909,-13.78307,-55.28771999999999,Santa Rita do Trivelato,MT,4756,2009,666.3,0.3,679.8,2.8,0.0,3407.1,0.0,0.14009671993271655
910,-10.96311,-49.32012,Santa Rita do Tocantins,TO,3285,2009,20.7,0.4,16.9,0.0,0.2,3247.0,0.2,0.006301369863013698
911,-3.15407,-44.33057,Santa Rita,MA,718,2009,234.3,0.1,215.8,76.3,1.2,168.6,21.8,0.3263231197771588
912,-8.800989999999999,-47.89796,Santa Maria do Tocantins,TO,1419,2009,0.0,0.0,0.0,0.0,0.0,1410.6,9.3,0.0
913,-1.36579,-47.53045,Santa Maria do Pará,PA,460,2009,413.7,0.2,26.0,18.8,1.5,0.0,0.0,0.8993478260869565
914,-8.64175,-50.39224,Santa Maria das Barreiras,PA,10351,2009,5746.0,25.4,2045.5,1.6,0.0,2508.9,49.0,0.555115447782823
915,-2.52815,-45.77625,Santa Luzia do Paruá,MA,908,2009,863.6,0.2,11.9,0.7,1.3,30.5,0.0,0.9511013215859031
916,-1.72515,-46.89921,Santa Luzia do Pará,PA,1367,2009,1247.9,8.7,114.5,3.4,1.2,0.0,0.0,0.9128749085588881
917,-12.1423,-61.729459999999996,Santa Luzia D'Oeste,RO,1207,2009,973.8,0.8,233.2,0.0,0.0,0.0,0.0,0.8067937033968516
918,-4.29175,-45.936820000000004,Santa Luzia,MA,6245,2009,5696.4,19.1,545.9,2.3,0.4,0.0,0.0,0.9121537229783826
919,-0.25129,-64.98731,Santa Isabel do Rio Negro,AM,64130,2009,207.3,0.1,57615.2,4649.6,78.8,950.8,628.3,0.0032324964915016376
920,-1.36752,-48.12871,Santa Isabel do Pará,PA,720,2009,532.4,0.1,75.3,85.6,1.8,4.1,20.8,0.7394444444444445
921,-3.85236,-45.42994,Santa Inês,MA,778,2009,766.3,0.0,0.0,0.0,0.0,8.6,3.5,0.9849614395886889
922,-2.4694599999999998,-45.536809999999996,Santa Helena,MA,2335,2009,1407.5,1.7,157.1,31.8,1.4,629.3,107.9,0.6027837259100642
923,-5.49785,-44.60715,Santa Filomena do Maranhão,MA,408,2009,55.4,0.6,13.3,0.0,0.0,339.3,0.0,0.13578431372549019
924,-7.0407,-49.04623,Santa Fé do Araguaia,TO,1683,2009,1263.3,3.0,360.4,0.0,0.0,0.0,59.3,0.7506238859180036
925,-10.04129,-52.55143,Santa Cruz do Xingu,MT,5627,2009,1344.6,3.0,2595.4,0.0,0.0,1621.6,65.4,0.23895503820863692
926,-0.55415,-49.32373,Santa Cruz do Arari,PA,1078,2009,0.0,0.0,3.8,1.9,0.0,1044.1,28.2,0.0
927,-11.946639999999999,-54.842240000000004,Santa Carmem,MT,3836,2009,1442.6,5.6,2393.4,0.0,0.0,0.0,0.0,0.37606882168925965
